Version,Tick,Date,Time,Latitude,Longitude,Ground Speed,Track,Magnetic Variation,GPS Altitude,Desired Track,Cross Track Error,Roll,Pitch,Magnetic Heading,Magnetic Field Heading,Pressure Altitude,Indicated Altitude,Vertical Speed,Density Altitude,Indicated Airspeed,True Airspeed,Normal Acceleration,OAT,Wind Speed,Wind Direction,RPM1/N1,RPM2/N2,CHT1,CHT2,CHT3,CHT4,CHT5,CHT6,EGT1,EGT2,EGT3,EGT4,EGT5,EGT6,Fuel Flow,Fuel Total,Carb Temp,Oil Temp,Oil Pressure,Coolant Temp,Hourmeter,EIS Volts,Aux1,Aux2,Aux3,Aux4,Aux5,Aux6,Internal MAP,R-N1,R-N2,Analog1,Analog2,Analog3,Analog4,Analog5,Analog6,Analog7,Analog8,Volts1,Volts2,Volts3
2,21522,8/1/2021,20:01:31,,,,,,,,,,,,178.3,188,360,7356,-8044,,,0.982,-50,,,1112,0,100,99,100,99,101,97,787,759,752,750,774,760,1.5,8.8,83,90,37,59,57.2,12.3,0.8,11.3,0,0,0,0,,,,0,0,0,0,0,0,0,0,12.36,3.38,
2,22522,,,,,,,,,,,,,,168.9,368,540,5888,-7809,,,0.992,-50,,,1112,0,101,100,101,100,103,98,794,766,758,757,781,768,1.4,8.8,83,90,37,59,57.2,12.3,0.9,11.2,0,0,0,0,,,,0,0,0,0,0,0,0,0,12.36,3.45,
2,23523,,,,,,,,,,,,,,174.8,459,631,4121,-7690,,,0.982,-50,,,1126,0,102,102,103,101,104,99,799,773,766,765,787,774,1,8.8,83,90,37,59,57.2,12.3,0.9,11.2,0,0,0,0,,,,0,0,0,0,0,0,0,0,12.32,3.49,
2,24522,,,,,,,,,,,,,,179.2,502,674,2833,-7634,,,0.955,-50,,,1126,0,103,103,103,102,105,101,806,777,771,772,793,781,0.8,8.8,83,90,37,59,57.2,12.3,0.8,11.2,0,0,0,0,,,,0,0,0,0,0,0,0,0,12.36,3.53,
2,25523,,,,,,,,,,,,,,179.7,521,693,1938,-7610,,,0.962,-50,,,1126,0,104,104,105,103,106,102,813,783,776,778,800,786,0.7,8.8,83,90,37,59,57.2,12.3,0.8,11.2,0,0,0,0,,,,0,0,0,0,0,0,0,0,12.32,3.56,
2,26522,8/28/2021,19:05:31,42.240017,-83.510544,0,0,0,782,47.3,0,,,,181.9,529,701,1343,-7599,,,0.966,-50,,,1126,0,105,105,105,105,107,103,817,790,781,783,804,792,0.6,8.8,83,90,46,59,57.2,12.3,0.9,11.3,0,0,0,0,,,,0,0,0,0,0,0,0,0,12.39,3.58,
2,27522,8/28/2021,19:05:32,42.240028,-83.510536,0,0,0,775,47.3,0,,,,179.1,530,702,951,-7598,,,0.965,-50,,,1134,0,106,106,106,105,107,104,819,798,787,790,811,797,0.4,8.8,82,90,48,59,57.2,12.3,0.9,11.2,0,0,0,0,,,,0,0,0,0,0,0,0,0,12.34,3.6,
2,28522,8/28/2021,19:05:33,42.240028,-83.510536,0,0,0,775,47.3,0,,,,177.4,530,702,651,-7598,,,0.973,-50,,,1136,0,106,107,107,106,109,105,823,802,793,794,814,801,0.4,8.8,82,90,42,59,57.2,12.3,0.8,11.1,0,0,0,0,,,,0,0,0,0,0,0,0,0,12.34,3.64,
2,29522,8/28/2021,19:05:34,42.240028,-83.510536,0,0,0,774,47.3,0,,,,178.5,530,702,445,-7598,,,0.974,-50,,,1136,0,107,108,108,107,110,106,826,807,799,798,819,806,0.3,8.8,82,90,48,59,57.2,12.2,0.8,11.2,0,0,0,0,,,,0,0,0,0.01,0,0,0,0,12.34,3.64,
2,30522,8/28/2021,19:05:35,42.240028,-83.510536,0,0,0,774,47.3,0,,,,179.3,530,702,304,-7598,,,0.957,-50,,,1136,0,108,109,109,109,110,107,830,810,802,803,823,810,0.4,8.8,82,90,48,59,57.2,12.3,0.9,11.2,0,0,0,0,,,,0,0,0,0,0,0,0,0,12.41,3.71,
2,31522,8/28/2021,19:05:36,42.240032,-83.510536,0,0,0,768,47.3,0,,,,178.8,530,702,210,-7598,,,0.958,-50,,,1174,0,109,110,110,110,111,108,835,818,810,811,828,816,0.4,8.8,82,90,48,59,57.2,12.3,0.9,11.4,0,0,0,0,,,,0,0,0,0,0,0,0,0,12.36,3.68,
2,32522,8/28/2021,19:05:37,42.240036,-83.510529,0,0,0,763,47.3,0,,,,178.1,531,703,146,-7597,,,0.975,-50,,,1198,0,110,111,111,111,112,109,840,828,818,821,837,826,0.4,8.8,82,90,48,59,57.2,12.2,0.8,11.5,0,0,0,0,,,,0,0,0,0,0,0,0,0,12.32,3.71,
2,33522,8/28/2021,19:05:38,42.24004,-83.510529,0,0,0,759,47.3,0,,,,179.3,531,703,101,-7597,,,0.97,-50,,,1216,0,111,112,112,111,113,110,847,836,827,835,847,836,0.4,8.8,82,90,46,59,57.2,12.3,0.9,11.6,0,0,0,0,,,,0,0,0,0,0,0,0,0,12.32,3.66,
2,34522,8/28/2021,19:05:39,42.24004,-83.510521,0,0,0,756,47.3,0,,,,179.2,531,703,69,-7597,11.2,10,0.97,-50,,,1220,0,112,113,113,113,114,111,855,843,835,845,854,844,0.5,8.8,81,90,48,59,57.2,12.3,0.8,11.5,0,0,0,0,,,,0,0,0,0,0,0,0,0,12.3,3.75,
2,35522,8/28/2021,19:05:40,42.240044,-83.510521,0,360,0,753,47.3,0,-1.2,9.6,179,179.2,531,703,47,-7597,,,0.978,-50,,,1232,0,113,114,114,113,115,112,864,855,844,857,865,855,0.5,8.8,81,90,48,59,57.2,12.3,0.9,11.6,0,0,0,0,,,,0,0,0,0,0,0,0,0,12.28,3.77,
2,36522,8/28/2021,19:05:41,42.240044,-83.510521,0.2,0,0,748,47.3,0,-1.3,9.7,179.1,178.4,531,703,32,-7597,,,0.978,-50,,,1232,0,114,115,115,114,117,113,872,861,852,865,873,863,0.5,8.8,81,90,48,59,57.2,12.3,0.8,11.6,0,0,0,0,,,,0,0,0,0,0,0,0,0,12.34,3.75,
2,37522,8/28/2021,19:05:42,42.240047,-83.510529,0,360,7.3,740,47.3,0,-1.3,9.7,179,179.4,531,703,22,-7597,,,0.975,-50,,,1240,0,115,116,116,115,118,114,880,872,860,875,882,871,0.6,8.8,81,90,48,59,57.2,12.3,0.9,11.7,0,0,0,0,,,,0,0,0,0,0,0,0,0,12.34,3.77,
2,38522,8/28/2021,19:05:43,42.240047,-83.510529,0,0,7.3,736,47.3,0,-1.3,9.7,179.1,179.2,531,703,15,-7597,,,0.97,-50,,,1248,0,116,117,117,116,119,115,887,880,869,884,889,878,0.6,8.8,80,90,48,59,57.2,12.3,0.9,11.7,0,0,0,0,,,,0,0,0,0,0,0,0,0,12.39,3.79,
2,39522,8/28/2021,19:05:44,42.240047,-83.510529,0,0,7.3,734,47.3,0,-1.3,9.8,179.2,178.6,532,704,30,-7595,,,0.976,-50,,,1248,0,116,118,118,117,120,116,894,888,876,892,897,886,0.5,8.8,80,90,48,59,57.2,12.3,0.9,11.7,0,0,0,0,,,,0.01,0,0,0,0,0,0,0,12.32,3.84,
2,40522,8/28/2021,19:05:45,42.240047,-83.510536,0,360,7.3,736,47.3,0,-0.9,9.8,179.1,178.3,532,704,20,-7595,,,0.976,-50,,,1250,0,118,119,119,118,121,117,901,895,884,902,905,895,0.6,8.8,80,90,48,59,57.2,12.3,0.9,11.8,0,0,0,0,,,,0,0,0,0,0,0,0,0,12.36,3.84,
2,41522,8/28/2021,19:05:46,42.240047,-83.510536,0,360,7.3,739,47.3,0,-0.9,9.8,179,178.2,532,704,14,-7595,,,0.969,-50,,,1250,0,119,120,120,120,122,118,909,903,891,912,913,903,0.6,8.8,80,90,48,59,57.2,12.2,0.9,11.7,0,0,0,0,,,,0,0,0,0,0,0,0,0,12.36,3.86,
2,42523,8/28/2021,19:05:47,42.240047,-83.510544,0,360,7.3,741,47.3,0,-1,9.9,178.9,178.8,532,704,9,-7595,,,0.974,-50,,,1250,0,120,121,121,120,123,119,915,909,896,920,918,909,0.6,8.8,80,90,48,59,57.2,12.2,0.9,11.8,0,0,0,0,,,,0,0,0,0,0,0,0,0,12.39,3.86,
2,43522,8/28/2021,19:05:48,42.240047,-83.510544,0,360,7.3,742,47.3,0,-0.9,10,178.9,178.3,532,704,6,-7595,,,0.972,-50,,,1256,0,121,122,122,121,124,120,922,917,903,929,925,914,0.7,8.8,80,90,48,59,57.2,12.2,0.9,11.7,0,0,0,0,,,,0.02,0,0,0,0,0,0,0,12.26,3.9,
2,44523,8/28/2021,19:05:49,42.240047,-83.510544,0,0,7.3,743,47.3,0,-1,10,178.9,178.2,532,704,4,-7595,,,0.97,-50,,,922,0,122,123,124,122,126,121,934,930,925,944,942,924,0.6,8.8,80,90,41,59,57.2,12.2,0.9,12.5,0,0,0,0,,,,0,0,0,0,0,0,0,0,12.34,3.9,
2,45522,8/28/2021,19:05:50,42.240047,-83.510551,0,0,7.3,745,47.3,0,-1.4,10,178.8,179.5,532,704,3,-7595,,,0.968,-50,,,0,0,123,124,125,123,127,122,926,911,902,920,920,907,0.7,8.8,80,90,57,59,57.2,12.2,0.9,14.2,0,0,0,0,,,,0,0,0,0,0,0,0,0,12.23,3.88,
2,46523,8/28/2021,19:05:51,42.240051,-83.510551,0,0,7.3,745,47.3,0,-1.4,10,178.9,179.2,532,704,2,-7595,,,0.972,-50,,,0,0,124,125,126,125,128,123,903,892,884,902,903,881,0.6,8.8,80,90,4,59,57.2,12.2,0.8,21.7,0,0,0,0,,,,0,0,0,0,0,0,0,0,12.34,3.92,
2,47522,8/28/2021,19:05:52,42.240051,-83.510551,0,360,7.3,745,47.3,0,-1.2,9.9,178.9,178.4,532,704,1,-7595,,,0.974,-50,,,0,0,126,126,127,126,130,124,889,878,873,889,891,869,3.3,8.8,79,90,0,59,57.2,12.3,0.9,25.4,0,0,0,0,,,,0,0,0,0,0,0,0,0,12.39,3.9,
2,48523,8/28/2021,19:05:53,42.240051,-83.510551,0,360,7.3,745,47.3,0,-1,9.9,178.9,177.9,532,704,0,-7595,,,0.974,-50,,,0,0,127,128,129,128,131,126,872,863,858,873,875,856,2.6,8.8,79,90,1,59,57.2,12.3,0.9,27.4,0,0,0,0,,,,0,0,0,0,0,0,0,0,12.41,3.96,
2,49522,8/28/2021,19:05:54,42.240051,-83.510551,0,0,7.3,745,47.3,0,-0.9,9.9,178.8,178.3,532,704,0,-7595,,,0.973,-50,,,0,0,128,129,130,129,132,126,856,848,844,857,860,842,2,8.8,79,90,0,59,57.2,12.3,0.9,28.3,0,0,0,0,,,,0,0,0,0,0,0,0,0,12.36,3.94,
2,50522,8/28/2021,19:05:55,42.240051,-83.510551,0,360,7.3,745,47.3,0,-0.9,9.9,178.8,177.9,532,704,0,-7595,,,0.974,-50,,,0,0,129,130,130,130,133,127,844,836,832,845,848,832,1.7,8.8,79,90,0,59,57.2,12.3,0.9,28.9,0,0,0,0,,,,0,0,0,0,0,0,0,0,12.39,3.84,
2,51522,8/28/2021,19:05:56,42.240051,-83.510551,0,360,7.3,745,47.3,0,-0.8,9.9,178.7,177.7,532,704,0,-7595,,,0.974,-50,,,0,0,130,131,131,130,133,128,829,822,818,830,833,820,1.2,8.8,79,90,0,59,57.2,12.3,0.9,29,0,0,0,0,,,,0,0,0,0,0,0,0,0,12.39,3.99,
2,52522,8/28/2021,19:05:57,42.240051,-83.510559,0,0,7.3,746,47.3,0,-0.8,9.9,178.6,178.3,532,704,0,-7595,,,0.972,-50,,,0,0,131,131,131,131,134,128,815,808,805,816,822,810,0.9,8.8,80,90,0,59,57.2,12.3,0.8,29.1,0,0,0,0,,,,0,0,0,0,0,0,0,0,12.19,3.96,
2,53522,8/28/2021,19:05:58,42.240051,-83.510559,0,360,7.3,746,47.3,0,-0.8,9.9,178.5,178.5,532,704,0,-7595,,,0.972,-50,,,0,0,131,131,132,131,134,129,804,797,794,805,808,798,3,8.8,80,90,0,59,57.2,12.3,0.9,29.2,0,0,0,0,,,,0,0,0,0,0,0,0,0,12.34,4.01,
2,54522,8/28/2021,19:05:59,42.240051,-83.510559,0,360,7.3,745,47.3,0,-0.8,9.8,178.5,177.6,532,704,0,-7595,,,0.973,-50,,,0,0,131,131,132,131,134,129,793,786,784,795,797,788,5.5,8.8,80,90,0,59,57.2,12.3,0.9,29.3,0,0,0,0,,,,0,0,0,0,0,0,0,0,12.36,4.03,
2,55522,8/28/2021,19:06:00,42.240051,-83.510559,0,0,7.3,745,47.3,0,-0.8,9.9,178.5,178.2,532,704,0,-7595,,,0.974,-50,,,0,0,131,131,132,131,134,129,780,773,770,781,785,776,6.8,8.8,80,90,0,59,57.2,12.3,0.9,29.3,0,0,0,0,,,,0,0,0,0,0,0,0,0,12.3,4.01,
2,56522,8/28/2021,19:06:01,42.240051,-83.510559,0,360,7.3,744,47.3,0,-0.8,9.8,178.4,178.1,532,704,0,-7595,,,0.974,-50,,,0,0,131,131,132,131,134,129,767,761,758,768,772,765,7.4,8.8,80,90,0,59,57.2,12.3,0.9,29.2,0,0,0,0,,,,0,0,0,0,0,0,0,0,12.36,4.09,
2,57522,8/28/2021,19:06:02,42.240051,-83.510559,0,0,7.3,744,47.3,0,-0.4,9.8,178.4,177.3,532,704,0,-7595,,,0.909,-50,,,0,0,131,131,132,131,134,129,757,751,748,758,762,756,7.2,8.8,80,90,0,59,57.2,12.3,0.9,29.2,0,0,0,0,,,,0,0,0,0,0,0,0,0,12.34,4.07,
2,58522,8/28/2021,19:06:03,42.240051,-83.510559,0,360,7.3,743,47.3,0,-0.2,9.7,178.2,177.5,532,704,0,-7595,,,0.946,-50,,,0,0,131,131,132,131,134,129,747,742,738,749,752,748,6.6,8.8,80,90,0,59,57.2,12.3,0.9,29.2,0,0,0,0,,,,0,0,0,0,0,0,0,0,6.42,2.8,
2,59522,8/28/2021,19:06:04,42.240051,-83.510559,0,0,7.3,743,47.3,0,-0.3,9.8,178.3,178.5,532,704,0,-7595,,,0.965,-50,,,0,0,131,131,132,131,134,129,747,742,738,749,752,748,6.6,8.8,80,90,0,59,57.2,12.3,0.9,29.2,0,0,0,0,,,,0,0,0,0,0,0,0,0,8.32,3.21,
2,61523,8/28/2021,19:06:06,42.240055,-83.510559,0,359.9,7.3,741,47.3,0,0.9,9.7,177.7,175.4,532,704,0,-7595,,,0.963,-50,,,720,0,49,51,51,39,41,37,690,687,678,693,692,690,1.7,8.8,41,67,55,39,57.2,8.1,-9.9,8.9,0,0,0,0,,,,0,0,0,0,0,0,0,0,12.28,4.09,
2,62522,8/28/2021,19:06:07,42.240055,-83.510559,0,360,7.3,740,47.3,0,0.6,9.7,177.4,176.3,532,704,0,-7595,,,0.972,-50,,,716,0,88,89,90,90,92,87,707,708,697,715,712,705,2.6,8.8,60,78,57,50,57.2,10.4,-7,10.3,0,0,0,0,,,,0,0,0,0,0,0,0,0,12.3,4.12,
2,63522,8/28/2021,19:06:08,42.240055,-83.510559,0,360,7.3,740,47.3,0,0.2,9.8,177.2,176.6,532,704,0,-7595,,,0.974,-50,,,716,0,109,111,112,112,114,109,716,720,710,730,724,715,3,8.8,71,85,55,55,57.2,11.4,-2.6,11.1,0,0,0,0,,,,0,0,0,0,0,0,0,0,12.34,4.12,
2,64522,8/28/2021,19:06:09,42.240055,-83.510559,0,360,7.3,739,47.3,0,-0.2,9.8,177.1,177.4,532,704,0,-7595,,,0.973,-50,,,716,0,118,120,122,121,123,118,721,725,718,740,730,721,3.3,8.8,75,87,58,57,57.2,11.9,0.9,11.6,0,0,0,0,,,,0,0,0,0,0,0,0,0,12.34,4.14,
2,65522,8/28/2021,19:06:10,42.240055,-83.510559,0,0,7.3,739,47.3,0,-0.2,9.7,177.1,177.5,532,704,0,-7595,,,0.978,-50,,,716,0,123,125,126,125,128,122,724,730,724,748,734,724,3.4,8.8,78,89,58,58,57.2,12.1,0,11.8,0,0,0,0,,,,0,0,0,0,0,0,0,0,12.36,4.16,
2,66522,8/28/2021,19:06:11,42.240055,-83.510559,0.2,0,7.3,738,47.3,0,-0.3,9.7,177.1,177.5,532,704,0,-7595,,,0.971,-50,,,716,0,125,127,129,127,131,125,725,733,727,755,739,725,3.8,8.8,79,89,55,59,57.2,12.2,0.5,12,0,0,0,0,,,,0,0,0,0,0,0,0,0,12.39,4.16,
2,67522,8/28/2021,19:06:12,42.240055,-83.510559,0,0,7.3,738,47.3,0,-0.6,9.8,177.2,178,532,704,0,-7595,,,0.976,-50,,,778,0,127,129,130,129,133,126,731,741,736,765,743,732,4,8.8,80,90,45,59,57.2,12.3,0.7,12.6,0,0,0,0,,,,0,0,0,0,0,0,0,0,12.39,4.16,
2,68522,8/28/2021,19:06:13,42.240055,-83.510559,0,0,7.3,738,47.3,0,-1,9.7,177.2,179,532,704,0,-7595,,,0.973,-50,,,1068,0,128,129,131,130,133,127,741,752,744,773,752,743,3.9,8.8,80,90,46,59,57.2,12.3,0.8,12.1,0,0,0,0,,,,0,0,0,0,0,0,0,0,12.3,4.16,
2,69522,8/28/2021,19:06:14,42.240055,-83.510551,0,0,7.3,737,47.3,0,-0.9,9.7,177.5,178.6,532,704,0,-7595,,,0.968,-50,,,1092,0,129,130,132,130,134,127,752,761,751,782,764,756,3.6,8.8,80,90,49,59,57.2,12.3,0.9,11.8,0,0,0,0,,,,0,0,0,0,0,0,0,0,12.36,4.18,
2,70522,8/28/2021,19:06:15,42.240055,-83.510551,0,360,7.3,737,47.3,0,-0.7,9.7,177.6,178.2,532,704,0,-7595,,,0.97,-50,,,1096,0,129,130,132,130,135,127,762,771,758,790,773,768,3.3,8.8,80,90,45,59,57.2,12.3,0.9,11.5,0,0,0,0,,,,0,0,0,0,0,0,0,0,12.39,4.2,
2,71522,8/28/2021,19:06:16,42.240055,-83.510551,0,0,7.3,737,47.3,0,-0.7,9.7,177.7,178.3,532,704,0,-7595,,,0.98,-50,,,1096,0,129,130,133,131,135,128,773,780,765,797,780,775,3.3,8.8,80,90,48,59,57.2,12.4,0.9,11.5,0,0,0,0,,,,0,0,0,0,0,0,0,0,12.41,4.22,
2,72522,8/28/2021,19:06:17,42.240055,-83.510551,0,0,7.3,737,47.3,0,-0.7,9.7,177.8,177.4,532,704,0,-7595,,,0.974,-50,,,1102,0,130,131,133,131,136,129,780,788,770,802,786,783,3.4,8.8,80,90,48,59,57.2,12.4,0.9,11.4,0,0,0,0,,,,0,0,0,0,0,0,0,0,12.36,4.2,
2,73522,8/28/2021,19:06:18,42.240055,-83.510551,0,0,7.3,736,47.3,0,-0.7,9.7,177.8,177.8,532,704,0,-7595,,,0.972,-50,,,1102,0,132,132,135,133,137,130,789,797,779,808,795,791,3.3,8.8,80,90,48,59,57.2,12.4,0.9,11.4,0,0,0,0,,,,0,0,0,0,0,0,0,0,12.41,4.22,
2,74522,8/28/2021,19:06:19,42.240055,-83.510551,0,360,7.3,735,47.3,0,-0.7,9.8,177.8,177.9,532,704,0,-7595,,,0.969,-50,,,1108,0,132,133,135,133,138,131,796,804,784,813,803,800,3.3,8.8,80,90,46,59,57.2,12.4,0.9,11.4,0,0,0,0,,,,0,0,0,0,0,0,0,0,12.43,4.24,
2,75522,8/28/2021,19:06:20,42.240055,-83.510551,0,360,7.3,735,47.3,0,-1,9.8,177.9,178.2,532,704,0,-7595,,,0.97,-50,,,1112,0,132,134,136,134,138,132,802,811,787,819,807,805,3.3,8.8,80,90,46,59,57.2,12.4,0.9,11.3,0,0,0,0,,,,0.02,0,0,0,0,0,0,0,12.39,4.24,
2,76522,8/28/2021,19:06:21,42.240055,-83.510551,0,0,7.3,735,47.3,0,-1,9.8,178,178.3,532,704,0,-7595,,,0.975,-50,,,1116,0,133,135,137,135,140,133,809,816,792,823,815,812,3.3,8.8,80,90,46,59,57.2,12.4,0.9,11.4,0,0,0,0,,,,0,0,0,0,0,0,0,0,12.39,4.27,
2,77522,8/28/2021,19:06:22,42.240051,-83.510544,0,0,7.3,735,47.3,0,-1,9.8,178.1,178.6,532,704,0,-7595,,,0.976,-50,,,1116,0,134,135,138,136,140,134,816,821,798,828,819,818,3.4,8.8,79,90,46,59,57.2,12.4,0.9,11.4,0,0,0,0,,,,0,0,0,0,0,0,0,0,12.41,4.27,
2,78522,8/28/2021,19:06:23,42.240051,-83.510544,0,0,7.3,735,47.3,0,-1,9.8,178.2,178.6,532,704,0,-7595,,,0.961,-50,,,1116,0,135,136,139,136,142,135,821,825,803,832,822,823,3.5,8.8,79,90,48,59,57.2,12.4,0.9,11.2,0,0,0,0,,,,0,0,0,0,0,0,0,0,12.41,4.29,
2,79522,8/28/2021,19:06:24,42.240051,-83.510544,0,0,7.3,735,47.3,0,-1,9.9,178.3,178.3,532,704,0,-7595,,,0.96,-50,,,1116,0,136,137,140,137,142,135,825,829,806,837,826,826,3.5,8.8,79,90,46,59,57.2,12.4,0.9,11.4,0,0,0,0,,,,0,0,0,0,0,0,0,0,12.43,4.27,
2,80522,8/28/2021,19:06:25,42.240051,-83.510544,0,0,7.3,736,47.3,0,-1,9.9,178.4,178.7,532,704,0,-7595,,,0.971,-50,,,1116,0,136,138,141,138,143,136,832,835,811,840,831,831,3.6,8.8,79,90,43,59,57.2,12.3,0.9,11.3,0,0,0,0,,,,0,0,0,0,0,0,0,0,12.43,4.29,
2,81523,8/28/2021,19:06:26,42.240047,-83.510544,0,0,7.3,736,47.3,0,-0.8,9.8,178.4,177.4,532,704,11,-7595,,,0.977,-50,,,1120,0,137,138,141,138,144,137,837,836,813,842,834,835,3.6,8.8,79,90,46,59,57.2,12.3,0.9,11.4,0,0,0,0,,,,0,0,0,0,0,0,0,0,12.43,4.29,
2,82522,8/28/2021,19:06:27,42.240047,-83.510544,0,0,7.3,736,47.3,0,-0.8,9.8,178.3,177.3,532,704,8,-7595,,,0.977,-50,,,1120,0,138,139,142,139,145,138,841,837,816,844,836,840,3.5,8.8,79,90,44,59,57.2,12.3,0.9,11.3,0,0,0,0,,,,0,0,0,0,0,0,0,0,12.45,4.29,
2,83523,8/28/2021,19:06:28,42.240047,-83.510544,0,360,7.3,736,47.3,0,-0.9,9.8,178.3,178.9,532,704,10,-7595,,,0.982,-50,,,1120,0,139,140,144,140,146,139,844,841,819,847,838,844,3.7,8.8,79,91,46,59,57.2,12.3,0.9,11.4,0,0,0,0,,,,0,0,0,0,0,0,0,0,12.43,4.29,
2,84522,8/28/2021,19:06:29,42.240047,-83.510536,0,0,7.3,737,47.3,0,-0.9,9.9,178.4,178.4,532,704,7,-7595,,,0.978,-50,,,1120,0,140,141,144,141,148,139,848,843,820,849,840,849,3.7,8.8,79,91,48,59,57.2,12.3,0.9,11.4,0,0,0,0,,,,0,0,0,0,0,0,0,0,12.43,4.31,
2,85522,8/28/2021,19:06:30,42.240047,-83.510536,0,0,7.3,737,47.3,0,-0.4,9.8,178.4,178.3,533,705,12,-7594,,,0.981,-50,,,1120,0,141,142,145,142,148,140,851,845,825,852,843,853,3.7,8.8,79,91,48,59,57.2,12.3,0.9,11.4,0,0,0,0,,,,0,0,0,0,0,0,0,0,12.45,4.35,
2,86522,8/28/2021,19:06:31,42.240047,-83.510536,0,0,7.3,737,47.3,0,-0.2,9.8,178.3,177.2,533,705,8,-7594,,,0.966,-50,,,1120,0,142,142,146,142,150,141,854,847,827,853,844,855,3.8,8.8,79,91,46,59,57.2,12.3,0.9,11.3,0,0,0,0,,,,0,0,0,0,0,0,0,0,12.39,4.35,
2,87522,8/28/2021,19:06:32,42.240047,-83.510536,0,360,7.3,737,47.3,0,-0.2,9.8,178.1,176.7,533,705,5,-7594,,,0.976,-50,,,1120,0,143,143,147,143,150,142,857,849,829,854,847,858,3.8,8.8,79,91,41,59,57.2,12.3,0.9,11.4,0,0,0,0,,,,0,0.02,0,0,0,0,0,0,12.39,4.33,
2,88522,8/28/2021,19:06:33,42.240044,-83.510536,0,360,7.3,738,47.3,0,-0.2,9.8,178,177.6,533,705,3,-7594,,,0.988,-50,,,1120,0,144,144,148,144,152,143,860,850,830,857,849,861,3.9,8.8,79,91,42,59,57.2,12.3,0.9,11.4,0,0,0,0,,,,0,0,0,0,0,0,0,0,12.47,4.35,
2,89522,8/28/2021,19:06:34,42.240044,-83.510536,0,360,7.3,738,47.3,0,-0.2,9.8,177.9,176.5,533,705,2,-7594,,,0.989,-50,,,1122,0,145,145,149,145,152,144,861,852,832,859,852,862,3.8,8.8,79,91,44,59,57.2,12.3,0.9,11.4,0,0,0,0,,,,0,0,0,0,0,0,0,0,12.43,4.35,
2,90522,8/28/2021,19:06:35,42.240044,-83.510536,0,0,7.3,738,47.3,0,-0.2,9.9,177.8,177.5,533,705,1,-7594,,,0.974,-50,,,1122,0,145,146,150,145,154,144,863,855,836,859,854,863,3.9,8.8,78,91,46,59,57.2,12.3,0.9,11.4,0,0,0,0,,,,0,0,0,0,0,0,0,0,12.45,4.35,
2,91522,8/28/2021,19:06:36,42.240044,-83.510536,0,360,7.3,738,47.3,0,-0.2,9.8,177.7,176.9,533,705,1,-7594,,,0.972,-50,,,1122,0,146,146,151,146,154,145,865,857,836,862,856,865,3.9,8.8,78,91,46,59,57.2,12.3,0.9,11.5,0,0,0,0,,,,0,0,0,0,0,0,0,0,12.45,4.35,
2,92522,8/28/2021,19:06:37,42.240044,-83.510536,0,0,7.3,738,47.3,0,-0.3,9.9,177.6,177.9,533,705,0,-7594,,,0.97,-50,,,1128,0,147,147,152,147,155,146,865,858,837,864,858,867,3.9,8.8,78,91,48,59,57.2,12.3,0.9,11.4,0,0,0,0,,,,0,0,0,0,0,0,0,0,12.47,4.37,
2,93522,8/28/2021,19:06:38,42.240044,-83.510536,0,360,7.3,738,47.3,0,-0.6,9.9,177.6,178.3,533,705,0,-7594,,,0.956,-50,,,1128,0,148,147,153,148,156,147,867,858,840,865,858,869,3.9,8.8,78,91,46,59,57.2,12.4,0.9,11.4,0,0,0,0,,,,0,0,0,0,0,0,0,0,12.41,4.37,
2,94522,8/28/2021,19:06:39,42.240044,-83.510536,0,360,7.3,738,47.3,0,-0.6,9.9,177.6,176.3,533,705,0,-7594,,,0.96,-50,,,1128,0,149,148,154,148,157,147,870,860,841,866,858,869,3.8,8.8,78,91,43,59,57.2,12.3,0.9,11.4,0,0,0,0,,,,0,0,0,0,0,0,0,0,12.45,4.37,
2,95523,8/28/2021,19:06:40,42.240044,-83.510536,0,0,7.3,738,47.3,0,-0.5,9.9,177.7,177.6,533,705,0,-7594,,,0.956,-50,,,1130,0,150,149,155,149,158,148,872,862,843,866,858,870,3.9,8.8,78,91,46,59,57.2,12.4,0.9,11.4,0,0,0,0,,,,0,0,0,0,0,0,0,0,12.43,4.4,
2,96522,8/28/2021,19:06:41,42.24004,-83.510529,0,360,7.3,737,47.3,0,-0.4,9.9,177.7,177.7,533,705,0,-7594,,,0.969,-50,,,1130,0,151,150,155,150,159,149,872,863,844,866,858,871,3.9,8.8,78,91,48,59,57.2,12.3,0.9,11.4,0,0,0,0,,,,0,0,0,0,0,0,0,0,12.36,4.4,
2,97523,8/28/2021,19:06:42,42.24004,-83.510529,0,0,7.3,737,47.3,0,-0.5,9.9,177.7,178,533,705,0,-7594,,,0.969,-50,,,1130,0,151,151,157,150,160,149,873,864,845,867,858,872,3.8,8.8,77,91,46,59,57.2,12.3,0.9,11.4,0,0,0,0,,,,0,0,0,0,0,0,0,0,12.47,4.42,
2,98522,8/28/2021,19:06:43,42.24004,-83.510529,0,360,7.3,737,47.3,0,-0.4,9.9,177.7,177.8,533,705,0,-7594,,,0.969,-50,,,1130,0,152,151,158,151,161,150,873,864,845,869,860,872,3.8,8.8,77,91,48,59,57.2,12.3,0.9,11.5,0,0,0,0,,,,0,0,0,0,0,0,0,0,12.41,4.42,
2,99523,8/28/2021,19:06:44,42.24004,-83.510529,0,360,7.3,736,47.3,0,-0.4,9.9,177.7,177,533,705,0,-7594,,,0.974,-50,,,1130,0,153,151,158,151,161,150,874,864,845,869,862,872,3.7,8.8,77,92,43,59,57.2,12.3,0.9,11.4,0,0,0,0,,,,0,0,0,0,0,0,0,0,12.45,4.42,
2,100522,8/28/2021,19:06:45,42.24004,-83.510529,0,0,7.3,736,47.3,0,-0.4,9.9,177.7,178,533,705,0,-7594,,,0.973,-50,,,1130,0,154,152,159,152,163,151,877,864,847,869,863,873,3.8,8.8,77,92,46,59,57.2,12.3,0.9,11.4,0,0,0,0,,,,0,0,0,0,0,0,0,0,12.45,4.42,
2,101523,8/28/2021,19:06:46,42.24004,-83.510529,0,360,7.3,735,47.3,0,-0.5,9.9,177.7,177.7,533,705,0,-7594,,,0.98,-50,,,1130,0,155,152,160,153,164,152,878,866,847,869,864,874,3.8,8.8,77,92,48,59,57.2,12.3,0.9,11.4,0,0,0,0,,,,0,0,0,0,0,0,0,0,12.34,4.4,
2,102522,8/28/2021,19:06:47,42.24004,-83.510529,0,360,7.3,735,47.3,0,-0.4,9.9,177.8,177.8,533,705,0,-7594,,,0.967,-50,,,1130,0,155,153,161,154,164,153,878,866,848,871,865,876,3.8,8.8,77,92,46,59,57.2,12.3,0.9,11.3,0,0,0,0,,,,0,0,0,0,0,0,0,0,12.41,4.44,
2,103523,8/28/2021,19:06:48,42.24004,-83.510529,0,0,7.3,734,47.3,0,-0.4,9.9,177.7,177.5,533,705,0,-7594,,,0.972,-50,,,1130,0,156,154,162,154,165,153,878,868,849,871,867,877,3.7,8.8,77,92,45,59,57.2,12.3,0.9,11.4,0,0,0,0,,,,0,0,0,0,0,0,0,0,12.47,4.44,
2,104522,8/28/2021,19:06:49,42.24004,-83.510529,0,359.9,7.3,734,47.3,0,0,9.9,177.7,176.6,533,705,0,-7594,,,0.983,-50,,,1130,0,157,154,163,155,166,154,878,870,851,871,868,878,3.7,8.8,77,92,45,59,57.2,12.3,0.9,11.4,0,0,0,0,,,,0,0,0,0,0,0,0,0,12.45,4.44,
2,105523,8/28/2021,19:06:50,42.240044,-83.510529,0,360,7.3,733,47.3,0,0,9.8,177.6,177,533,705,0,-7594,,,0.973,-50,,,1130,0,158,155,164,155,167,154,878,872,853,871,868,878,3.8,8.8,77,92,46,59,57.2,12.3,0.9,11.4,0,0,0,0,,,,0,0,0,0,0,0,0,0,12.41,4.48,
2,106522,8/28/2021,19:06:51,42.240044,-83.510529,0,360,7.3,733,47.3,0,0,9.9,177.5,177.1,533,705,0,-7594,,,0.968,-50,,,1130,0,159,156,165,156,168,155,878,873,853,871,869,878,3.8,8.8,77,92,46,59,57.2,12.3,0.9,11.4,0,0,0,0,,,,0,0,0,0,0,0,0,0,12.39,4.48,
2,107522,8/28/2021,19:06:52,42.240044,-83.510529,0,0,7.3,732,47.3,0,-0.2,9.8,177.4,177.6,533,705,0,-7594,,,0.978,-50,,,1130,0,159,156,165,156,169,155,879,874,854,871,870,880,3.9,8.8,77,92,46,59,57.2,12.3,0.9,11.4,0,0,0,0,,,,0,0,0,0,0,0,0,0,12.45,4.48,
2,108522,8/28/2021,19:06:53,42.240044,-83.510529,0,0,7.3,732,47.3,0,-0.2,9.8,177.5,177.6,533,705,0,-7594,,,0.989,-50,,,1130,0,160,157,166,157,170,156,880,874,856,872,870,880,3.9,8.8,77,92,46,59,57.2,12.3,0.9,11.5,0,0,0,0,,,,0,0,0,0,0,0,0,0,12.43,4.5,
2,109522,8/28/2021,19:06:54,42.240044,-83.510529,0,0,7.3,731,47.3,0,-0.2,9.8,177.4,177.7,533,705,0,-7594,,,0.981,-50,,,1130,0,161,158,167,158,171,157,880,874,857,872,870,882,3.8,8.8,77,92,48,59,57.2,12.3,0.9,11.4,0,0,0,0,,,,0,0,0,0,0,0,0,0,12.34,4.44,
2,110522,8/28/2021,19:06:55,42.240044,-83.510529,0,0,7.3,730,47.3,0,-0.3,9.8,177.4,177.7,533,705,0,-7594,,,0.972,-50,,,1130,0,162,158,167,159,171,158,881,876,858,872,872,883,3.7,8.7,77,92,43,59,57.2,12.3,0.9,11.4,0,0,0,0,,,,0,0,0,0,0,0,0,0,12.45,4.5,
2,111522,8/28/2021,19:06:56,42.240044,-83.510529,0,0,7.3,730,47.3,0,-0.3,9.8,177.4,177.1,533,705,0,-7594,,,0.974,-50,,,1174,0,162,159,168,159,172,159,886,880,862,874,874,885,3.7,8.7,77,92,48,59,57.2,12.3,0.9,11.6,0,0,0,0,,,,0,0,0,0,0,0,0,0,12.47,4.5,
2,112522,8/28/2021,19:06:57,42.240044,-83.510529,0,0,7.3,730,47.3,0,-0.3,9.8,177.4,176.8,533,705,0,-7594,,,0.978,-50,,,1214,0,162,160,169,160,173,160,892,887,868,882,877,891,3.7,8.7,77,92,46,59,57.2,12.3,0.9,11.8,0,0,0,0,,,,0,0,0,0,0,0,0,0,12.45,4.5,
2,113523,8/28/2021,19:06:58,42.240044,-83.510529,0,0,7.3,730,47.3,0,-0.3,9.7,177.4,177.6,533,705,0,-7594,,,0.976,-50,,,1218,0,163,160,169,160,174,160,897,892,872,889,882,897,3.7,8.7,77,92,41,59,57.2,12.3,0.9,11.8,0,0,0,0,,,,0,0,0,0,0,0,0,0,12.45,4.48,
2,114522,8/28/2021,19:06:59,42.240047,-83.510529,0,0,7.3,728,47.3,0,-0.3,9.7,177.4,177.4,533,705,0,-7594,,,0.974,-50,,,1220,0,164,161,170,161,175,161,902,899,877,897,888,902,3.8,8.7,77,92,42,59,57.2,12.3,0.9,11.8,0,0,0,0,,,,0,0,0,0,0,0,0,0,12.47,4.5,
2,115523,8/28/2021,19:07:00,42.240047,-83.510529,0,0,7.3,728,47.3,0,-0.3,9.7,177.4,177.2,533,705,0,-7594,,,0.982,-50,,,1230,0,164,162,171,162,176,162,906,904,880,905,892,906,3.8,8.7,76,93,46,59,57.2,12.4,0.9,11.9,0,0,0,0,,,,0,0,0,0,0,0,0,0,12.49,4.52,
2,116522,8/28/2021,19:07:01,42.240051,-83.510529,0,360,7.3,728,47.3,0,-0.2,9.7,177.4,177,533,705,0,-7594,,,0.979,-50,,,1230,0,165,162,172,162,176,163,911,910,884,910,894,911,3.9,8.7,76,93,46,59,57.2,12.3,0.8,11.9,0,0,0,0,,,,0,0,0,0,0,0,0,0,12.45,4.55,
2,117522,8/28/2021,19:07:02,42.240051,-83.510529,0,0,7.3,727,47.3,0,-0.2,9.7,177.3,177.1,533,705,0,-7594,,,0.977,-50,,,1230,0,166,163,172,163,177,164,914,915,889,917,898,916,3.9,8.7,76,93,46,59,57.2,12.4,0.9,11.8,0,0,0,0,,,,0,0,0,0.04,0,0,0,0,12.45,4.52,
2,118522,8/28/2021,19:07:03,42.240051,-83.510529,0,0,7.3,727,47.3,0,-0.2,9.7,177.3,177.3,533,705,0,-7594,,,0.979,-50,,,1230,0,167,163,173,164,178,164,918,918,892,923,901,919,3.9,8.7,76,93,46,59,57.2,12.4,0.9,11.8,0,0,0,0,,,,0,0,0,0,0,0,0,0,12.54,4.55,
2,119522,8/28/2021,19:07:04,42.240051,-83.510529,0,360,7.3,727,47.3,0,-0.3,9.7,177.3,177.8,533,705,0,-7594,,,0.975,-50,,,1230,0,168,164,174,164,179,165,922,923,897,927,905,923,3.9,8.7,76,93,46,59,57.2,12.3,0.9,11.8,0,0,0,0,,,,0,0,0,0,0,0,0,0,12.45,4.55,
2,120522,8/28/2021,19:07:05,42.240055,-83.510529,0,0,7.3,727,47.3,0,-0.3,9.7,177.4,177.7,533,705,0,-7594,,,0.972,-50,,,1230,0,168,165,175,165,180,166,926,927,901,931,906,927,3.9,8.7,76,93,46,59,57.2,12.3,0.9,11.8,0,0,0,0,,,,0,0,0,0,0,0,0,0,12.43,4.52,
2,121522,8/28/2021,19:07:06,42.240055,-83.510529,0,0,7.3,727,47.3,0,-0.3,9.7,177.4,177.7,533,705,0,-7594,,,0.972,-50,,,1234,0,169,165,176,166,181,167,928,930,902,937,909,931,3.9,8.7,76,93,46,59,57.2,12.4,0.9,11.9,0,0,0,0,,,,0,0,0,0,0,0,0,0,12.45,4.59,
2,122522,8/28/2021,19:07:07,42.240055,-83.510529,0,0,7.3,727,47.3,0,-0.3,9.7,177.4,176.5,533,705,0,-7594,,,0.972,-50,,,1234,0,170,166,176,166,182,167,931,934,905,941,911,934,3.9,8.7,76,93,46,59,57.2,12.3,0.9,11.9,0,0,0,0,,,,0,0,0,0,0,0,0,0,12.34,4.55,
2,123522,8/28/2021,19:07:08,42.240055,-83.510521,0,0,7.3,727,47.3,0,-0.3,9.7,177.5,177.2,533,705,0,-7594,,,0.969,-50,,,1234,0,171,167,178,167,183,168,933,937,908,943,914,935,3.9,8.7,76,93,46,59,57.2,12.3,0.9,11.9,0,0,0,0,,,,0,0,0,0,0,0,0,0,12.41,4.57,
2,124522,8/28/2021,19:07:09,42.240055,-83.510521,0,0,7.3,727,47.3,0,-0.3,9.7,177.5,177.1,533,705,0,-7594,,,0.97,-50,,,1234,0,171,167,179,168,184,168,938,938,910,946,917,936,3.9,8.7,76,93,46,59,57.2,12.3,0.9,11.9,0,0,0,0,,,,0,0,0,0,0,0,0,0,12.45,4.59,
2,125522,8/28/2021,19:07:10,42.240055,-83.510521,0,0,7.3,727,47.3,0,-0.4,9.7,177.5,177.7,533,705,0,-7594,,,0.969,-50,,,1234,0,172,168,179,168,185,169,940,939,914,950,918,938,3.9,8.7,76,93,45,59,57.2,12.4,0.9,11.9,0,0,0,0,,,,0,0,0,0,0,0,0,0,12.41,4.61,
2,126523,8/28/2021,19:07:11,42.240055,-83.510521,0,0,7.3,728,47.3,0,-0.6,9.7,177.5,177.3,533,705,0,-7594,,,0.976,-50,,,1244,0,173,169,180,169,185,170,942,941,918,952,921,939,4,8.7,76,93,45,59,57.2,12.4,0.9,11.8,0,0,0,0,,,,0,0,0,0,0,0,0,0,12.45,4.61,
2,127522,8/28/2021,19:07:12,42.240055,-83.510521,0,0,7.3,728,47.3,0,-0.6,9.8,177.6,178,533,705,0,-7594,,,0.97,-50,,,1244,0,173,170,181,170,186,171,944,944,920,955,923,944,3.9,8.7,76,94,46,59,57.2,12.4,0.9,11.8,0,0,0,0,,,,0,0,0,0,0,0,0,0,12.47,4.61,
2,128523,8/28/2021,19:07:13,42.240059,-83.510521,0,0,7.3,728,47.3,0,-0.6,9.8,177.7,177.6,533,705,0,-7594,,,0.973,-50,,,1244,0,173,171,181,171,186,172,947,946,923,956,926,946,3.9,8.7,76,94,44,59,57.2,12.3,0.8,11.8,0,0,0,0,,,,0,0,0,0,0,0,0,0,12.47,4.63,
2,129522,8/28/2021,19:07:14,42.240059,-83.510521,0,0,7.3,728,47.3,0,-0.6,9.8,177.7,178.2,533,705,0,-7594,,,0.973,-50,,,1244,0,174,172,182,172,187,173,947,949,927,957,927,947,3.9,8.7,76,94,46,59,57.2,12.4,0.9,11.9,0,0,0,0,,,,0,0,0,0,0,0,0,0,12.47,4.61,
2,130522,8/28/2021,19:07:15,42.240059,-83.510521,0,0,7.3,728,47.3,0,-0.6,9.8,177.7,178,533,705,0,-7594,,,0.974,-50,,,1244,0,174,173,182,173,187,174,950,951,927,958,929,947,3.9,8.7,76,94,46,59,57.2,12.4,0.9,11.8,0,0,0,0,,,,0,0,0,0,0,0,0,0,12.45,4.65,
2,131522,8/28/2021,19:07:16,42.240059,-83.510521,0,0,7.3,729,47.3,0,-0.6,9.8,177.7,177.9,533,705,0,-7594,,,0.977,-50,,,1244,0,174,174,183,175,188,175,951,954,927,959,930,948,3.8,8.7,76,94,46,59,57.2,12.4,0.9,11.8,0,0,0,0,,,,0,0,0,0,0,0,0,0,12.47,4.63,
2,132522,8/28/2021,19:07:17,42.240059,-83.510521,0,0,7.3,729,47.3,0,-0.6,9.8,177.7,178.3,533,705,0,-7594,,,0.97,-50,,,1246,0,175,175,184,176,189,176,954,955,930,961,931,948,3.8,8.7,76,94,45,59,57.2,12.4,0.9,11.8,0,0,0,0,,,,0,0,0.02,0,0,0,0,0,12.34,4.59,
2,133522,8/28/2021,19:07:18,42.240059,-83.510513,0,0,7.3,729,47.3,0,-0.6,9.8,177.7,178.3,533,705,0,-7594,,,0.971,-50,,,1246,0,176,175,184,176,189,177,956,956,931,963,934,950,3.8,8.7,76,94,43,59,57.2,12.3,0.9,11.9,0,0,0,0,,,,0,0,0,0,0,0,0,0,12.45,4.61,
2,134522,8/28/2021,19:07:19,42.240059,-83.510513,0,360,7.3,730,47.3,0,-0.6,9.8,177.7,178.2,533,705,0,-7594,,,0.974,-50,,,1246,0,176,176,185,177,191,178,956,957,933,964,936,951,3.9,8.7,76,94,43,59,57.2,12.4,0.9,11.9,0,0,0,0,,,,0,0,0,0,0,0,0,0,12.49,4.65,
2,135522,8/28/2021,19:07:20,42.240059,-83.510513,0,360,7.3,730,47.3,0,-0.5,9.8,177.8,176.8,533,705,0,-7594,,,0.977,-50,,,1246,0,177,177,186,177,191,178,956,958,934,966,937,952,4,8.7,75,94,45,59,57.2,12.4,0.9,11.9,0,0,0,0,,,,0,0,0,0,0,0,0,0,12.41,4.63,
2,136522,8/28/2021,19:07:21,42.240059,-83.510513,0,0,7.3,730,47.3,0,-0.5,9.8,177.8,178,533,705,0,-7594,,,0.977,-50,,,1246,0,177,178,187,179,192,179,958,958,935,967,938,954,3.9,8.7,75,95,46,59,57.2,12.4,0.9,11.9,0,0,0,0,,,,0,0.01,0,0,0,0,0,0,12.47,4.65,
2,137522,8/28/2021,19:07:22,42.240059,-83.510513,0,0,7.3,730,47.3,0,-0.5,9.8,177.7,177.9,533,705,0,-7594,,,0.975,-50,,,1246,0,178,179,187,180,192,180,960,959,936,968,941,954,3.8,8.7,75,95,45,59,57.2,12.4,0.9,11.8,0,0,0,0,,,,0,0,0,0,0,0,0,0,12.45,4.65,
2,138522,8/28/2021,19:07:23,42.240059,-83.510513,0,0,7.3,730,47.3,0,-0.5,9.8,177.7,177.3,533,705,0,-7594,,,0.974,-50,,,1246,0,178,180,188,181,193,181,961,960,937,969,943,955,3.8,8.7,75,95,42,59,57.2,12.3,0.9,11.8,0,0,0,0,,,,0,0.01,0,0,0,0,0,0,12.43,4.63,
2,139523,8/28/2021,19:07:24,42.240059,-83.510513,0,0,7.3,730,47.3,0,-0.5,9.8,177.7,177.1,533,705,3,-7594,,,0.976,-50,,,1246,0,178,181,189,181,193,182,962,962,937,970,944,957,3.8,8.7,75,95,46,59,57.2,12.4,0.9,11.9,0,0,0,0,,,,0,0,0,0,0,0,0,0,12.39,4.65,
2,140522,8/28/2021,19:07:25,42.240059,-83.510513,0,0,7.3,730,47.3,0,-0.5,9.8,177.7,177.1,533,705,2,-7594,,,0.972,-50,,,1246,0,179,181,189,182,194,182,962,963,938,970,944,957,3.9,8.7,75,95,45,59,57.2,12.4,0.9,11.9,0,0,0,0,,,,0,0,0,0,0,0,0,0,12.41,4.65,
2,141523,8/28/2021,19:07:26,42.240059,-83.510513,0,0,7.3,730,47.3,0,-0.5,9.8,177.7,177.9,533,705,1,-7594,,,0.97,-50,,,1246,0,180,182,190,182,195,183,964,964,940,971,946,958,3.9,8.7,75,95,45,59,57.2,12.4,0.9,11.8,0,0,0,0,,,,0,0,0,0,0,0,0,0,12.45,4.68,
2,142522,8/28/2021,19:07:27,42.240059,-83.510513,0,0,7.3,731,47.3,0,-0.6,9.8,177.7,177.8,533,705,0,-7594,,,0.976,-50,,,1246,0,180,182,191,182,196,184,965,964,941,972,946,958,3.9,8.7,75,95,45,59,57.2,12.4,0.9,11.8,0,0,0,0,,,,0,0,0,0,0,0,0,0,12.41,4.68,
2,143523,8/28/2021,19:07:28,42.240059,-83.510513,0,0,7.3,731,47.3,0,-0.6,9.8,177.8,177.7,533,705,0,-7594,,,0.973,-50,,,1246,0,181,183,191,183,196,185,966,964,943,972,946,958,4,8.7,75,95,41,59,57.2,12.3,0.9,11.8,0,0,0,0,,,,0.01,0,0,0,0,0,0,0,12.45,4.7,
2,144522,8/28/2021,19:07:29,42.240059,-83.510513,0,360,7.3,731,47.3,0,-0.6,9.8,177.8,177.7,533,705,3,-7594,,,0.975,-50,,,1246,0,181,183,192,183,197,185,966,965,944,972,947,959,4,8.7,75,95,41,59,57.2,12.3,0.9,11.8,0,0,0,0,,,,0,0,0,0.03,0,0,0,0,12.43,4.65,
2,145523,8/28/2021,19:07:30,42.240059,-83.510506,0,360,7.3,731,47.3,0,-0.6,9.8,177.8,177.7,533,705,2,-7594,,,0.975,-50,,,1246,0,182,184,193,184,198,186,966,966,944,972,948,959,4,8.7,75,96,44,59,57.2,12.4,0.9,11.9,0,0,0,0,,,,0,0,0,0,0,0,0,0,12.45,4.7,
2,146522,8/28/2021,19:07:31,42.240059,-83.510506,0,0,7.3,731,47.3,0,-0.6,9.9,177.9,177.3,533,705,1,-7594,,,0.975,-50,,,1246,0,182,185,193,185,198,187,966,966,944,972,949,960,3.9,8.7,75,96,45,59,57.2,12.4,0.9,11.9,0,0,0,0,,,,0,0,0,0,0,0,0,0,12.45,4.7,
2,147522,8/28/2021,19:07:32,42.240055,-83.510506,0,0,7.3,732,47.3,0,-0.6,9.9,177.9,177.6,533,705,1,-7594,,,0.977,-50,,,1250,0,183,185,194,186,199,187,967,966,945,975,950,960,4,8.7,75,96,45,59,57.2,12.4,0.9,11.8,0,0,0,0,,,,0,0,0,0,0,0,0,0,12.45,4.72,
2,148522,8/28/2021,19:07:33,42.240055,-83.510506,0,0,7.3,732,47.3,0,-0.6,9.9,177.8,177.6,533,705,6,-7594,,,0.973,-50,,,1250,0,184,186,195,187,200,188,970,968,946,976,951,962,3.9,8.7,75,96,44,59,57.2,12.4,0.9,11.9,0,0,0,0,,,,0,0,0,0.03,0,0,0,0,12.47,4.7,
2,149522,8/28/2021,19:07:34,42.240055,-83.510498,0,0,7.3,732,47.3,0,-0.6,9.9,177.8,177.6,533,705,4,-7594,,,0.972,-50,,,1252,0,184,187,196,188,200,189,971,970,946,978,951,962,3.9,8.7,75,96,45,59,57.2,12.4,0.9,11.8,0,0,0,0,,,,0,0,0,0,0,0,0,0,12.47,4.72,
2,150522,8/28/2021,19:07:35,42.240055,-83.510498,0,0,7.3,732,47.3,0,-0.6,9.9,177.8,177.4,533,705,2,-7594,,,0.975,-50,,,1252,0,185,188,196,188,201,190,971,971,947,979,952,962,4,8.7,75,96,44,59,57.2,12.3,0.9,11.9,0,0,0,0,,,,0,0,0,0,0,0,0,0,12.36,4.7,
2,151522,8/28/2021,19:07:36,42.240051,-83.510498,0,0,7.3,732,47.3,0,-0.6,9.9,177.9,177.6,533,705,2,-7594,,,0.979,-50,,,1252,0,185,188,197,189,202,191,971,974,947,981,952,962,4,8.7,75,96,44,59,57.2,12.4,0.9,11.9,0,0,0,0,,,,0,0,0,0,0,0,0,0,12.39,4.72,
2,152522,8/28/2021,19:07:37,42.240051,-83.510498,0,0,7.3,733,47.3,0,-0.6,9.9,177.9,177.3,533,705,1,-7594,,,0.971,-50,,,1252,0,185,189,197,189,202,191,971,974,947,981,952,962,4,8.7,74,96,43,59,57.2,12.3,0.9,11.9,0,0,0,0,,,,0.01,0,0,0,0,0,0,0,12.45,4.74,
2,153522,8/28/2021,19:07:38,42.240051,-83.510498,0,0,7.3,734,47.3,0,-0.6,9.9,177.9,177.3,533,705,0,-7594,,,0.975,-50,,,1252,0,186,189,198,190,203,192,971,974,948,981,954,962,4.1,8.7,74,97,43,59,57.2,12.4,0.9,11.9,0,0,0,0,,,,0,0,0,0,0,0,0,0,12.43,4.72,
2,154522,8/28/2021,19:07:39,42.240051,-83.510498,0,0,7.3,734,47.3,0,-0.5,10,177.8,177.6,533,705,0,-7594,,,0.975,-50,,,1252,0,187,190,199,190,205,193,972,974,949,981,955,962,4,8.7,74,97,40,59,57.2,12.4,0.9,11.9,0,0,0,0,,,,0,0,0,0,0,0,0,0,12.47,4.74,
2,155522,8/28/2021,19:07:40,42.240047,-83.510498,0,0,7.3,735,47.3,0,-0.5,9.9,177.9,178,533,705,0,-7594,,,0.972,-50,,,1252,0,188,190,199,191,205,193,972,974,950,982,955,962,4,8.7,74,97,40,59,57.2,12.3,0.9,11.9,0,0,0,0,,,,0,0,0,0,0,0,0,0,12.47,4.76,
2,156522,8/28/2021,19:07:41,42.240047,-83.510498,2.9,167.5,7.3,735,47.3,0,-0.6,9.9,177.9,178,533,705,0,-7594,10.9,9.8,0.968,-50,7.8,171.4,1252,0,188,191,200,191,206,193,972,974,950,982,956,962,4.1,8.7,74,97,38,59,57.2,12.3,0.9,11.9,0,0,0,0,,,,0,0,0,0,0,0,0,0,12.39,4.76,
2,157522,8/28/2021,19:07:42,42.240047,-83.510498,0,0,7.3,736,47.3,0,-0.6,9.9,178,178.1,533,705,0,-7594,,,0.969,-50,,,1252,0,189,191,201,191,207,194,972,974,950,982,958,962,4,8.7,74,97,43,59,57.2,12.3,0.9,12,0,0,0,0,,,,0,0,0,0,0,0,0,0,12.45,4.74,
2,158522,8/28/2021,19:07:43,42.240047,-83.510498,0,360,7.3,737,47.3,0,-0.7,9.9,178,178,533,705,0,-7594,,,0.97,-50,,,1252,0,190,191,202,192,208,194,972,975,950,982,958,962,4,8.7,74,97,43,59,57.2,12.4,0.9,11.9,0,0,0,0,,,,0,0,0,0,0,0,0,0,12.45,4.76,
2,159522,8/28/2021,19:07:44,42.240044,-83.510498,0,0,7.3,737,47.3,0,-0.7,9.9,178.1,178.5,533,705,0,-7594,,,0.976,-50,,,1252,0,191,192,203,192,209,194,972,975,950,982,958,962,3.8,8.7,74,97,37,59,57.2,12.3,0.8,11.9,0,0,0,0,,,,0,0,0,0,0,0,0,0,12.45,4.78,
2,160522,8/28/2021,19:07:45,42.240044,-83.510498,0,0,7.3,739,47.3,0,-0.6,10,178.1,178.4,533,705,0,-7594,,,0.973,-50,,,1252,0,192,193,203,192,210,195,972,976,950,982,958,962,3.8,8.7,74,97,44,59,57.2,12.3,0.8,11.9,0,0,0,0,,,,0,0,0,0,0,0,0,0,12.41,4.78,
2,161522,8/28/2021,19:07:46,42.240044,-83.510498,0,0,7.3,740,47.3,0,-0.6,9.9,178.1,178,533,705,0,-7594,,,0.969,-50,,,1252,0,193,193,205,193,211,195,972,976,950,983,958,962,3.7,8.7,74,97,37,59,57.2,12.4,0.9,11.9,0,0,0,0,,,,0,0,0,0,0,0,0,0,12.47,4.83,
2,162523,8/28/2021,19:07:47,42.240044,-83.510498,0,360,7.3,741,47.3,0,-0.6,10,178.1,178.2,533,705,0,-7594,,,0.973,-50,,,1252,0,193,193,205,193,212,196,972,976,950,983,958,962,3.9,8.7,74,97,45,59,57.2,12.4,0.9,11.9,0,0,0,0,,,,0,0,0,0,0,0,0,0,12.36,4.78,
2,163522,8/28/2021,19:07:48,42.24004,-83.510498,0,360,7.3,742,47.3,0,-0.6,9.9,178.1,177.6,533,705,0,-7594,,,0.974,-50,,,1248,0,194,194,206,193,212,196,972,976,950,984,958,962,4,8.7,74,98,41,59,57.2,12.4,0.9,12,0,0,0,0,,,,0,0,0,0,0,0,0,0,12.45,4.78,
2,164523,8/28/2021,19:07:49,42.24004,-83.510498,0,0,7.3,743,47.3,0,-0.5,9.9,178.1,177,533,705,0,-7594,,,0.973,-50,,,1248,0,195,195,207,195,213,197,972,976,950,986,959,962,4,8.7,74,98,38,59,57.2,12.4,0.8,11.9,0,0,0,0,,,,0,0,0,0,0,0,0,0,12.47,4.78,
2,165522,8/28/2021,19:07:50,42.24004,-83.510498,0,0,7.3,743,47.3,0,-0.4,10,178.1,177.5,533,705,0,-7594,,,0.977,-50,,,1250,0,195,195,207,195,214,198,972,976,950,987,960,962,4,8.7,74,98,37,59,57.2,12.4,0.9,11.9,0,0,0,0,,,,0,0,0,0,0,0,0,0,12.49,4.8,
2,166523,8/28/2021,19:07:51,42.24004,-83.510498,0,360,7.3,743,47.3,0,-0.4,10,178,177.5,533,705,0,-7594,,,0.972,-50,,,1250,0,197,197,209,196,215,199,972,979,953,987,960,962,4,8.7,74,98,44,59,57.2,12.4,0.9,11.9,0,0,0,0,,,,0,0,0,0,0,0,0,0,12.45,4.78,
2,167522,8/28/2021,19:07:52,42.24004,-83.510498,0,0,7.3,743,47.3,0,-0.4,10,178,176.7,533,705,0,-7594,,,0.973,-50,,,1250,0,198,197,210,197,216,199,972,980,953,987,960,962,3.9,8.7,74,98,44,59,57.2,12.4,0.9,12,0,0,0,0,,,,0,0,0,0,0,0,0,0,12.36,4.78,
2,168523,8/28/2021,19:07:53,42.24004,-83.510498,0,0,7.3,743,47.3,0,-0.5,10,178,177.3,533,705,0,-7594,,,0.976,-50,,,1250,0,199,197,211,197,217,200,973,980,953,987,960,962,3.8,8.7,74,98,42,59,57.2,12.4,0.9,12,0,0,0,0,,,,0,0,0,0,0,0,0,0,12.47,4.8,
2,169522,8/28/2021,19:07:54,42.24004,-83.510498,0,0,7.3,742,47.3,0,-0.5,10,178,177.3,533,705,0,-7594,,,0.973,-50,,,1250,0,200,197,212,197,218,200,973,980,953,988,963,962,3.9,8.7,74,98,38,59,57.2,12.4,0.9,12,0,0,0,0,,,,0,0,0,0,0,0,0,0,12.34,4.8,
2,170523,8/28/2021,19:07:55,42.24004,-83.510498,0.6,168,7.3,742,47.3,0,-0.5,10,178,177.9,533,705,0,-7594,11.2,10.1,0.977,-50,9.4,170.8,1250,0,200,198,213,198,218,200,973,980,953,988,964,962,3.9,8.7,74,98,37,59,57.2,12.4,0.9,11.9,0,0,0,0,,,,0,0,0,0,0,0,0,0,12.49,4.8,
2,171522,8/28/2021,19:07:56,42.24004,-83.510498,0,360,7.3,743,47.3,0,-0.5,10,178,177.1,533,705,0,-7594,,,0.975,-50,,,1250,0,201,198,213,198,219,200,973,980,953,988,964,962,3.9,8.7,74,98,41,59,57.2,12.3,0.9,12,0,0,0,0,,,,0,0,0,0,0,0,0,0,12.47,4.83,
2,172523,8/28/2021,19:07:57,42.24004,-83.510498,0,0,7.3,744,47.3,0,-0.5,10.1,177.9,177.7,533,705,0,-7594,,,0.976,-50,,,1250,0,201,199,214,199,220,201,973,980,953,988,964,962,3.8,8.7,74,99,43,59,57.2,12.4,0.9,12,0,0,0,0,,,,0,0,0,0,0,0,0,0,12.45,4.83,
2,173522,8/28/2021,19:07:58,42.24004,-83.510498,0,0,7.3,744,47.3,0,-0.5,10,178,177.9,533,705,0,-7594,,,0.974,-50,,,1250,0,202,200,214,200,221,202,973,980,953,988,964,962,3.9,8.7,74,99,37,59,57.2,12.4,0.9,12,0,0,0,0,,,,0,0,0,0,0,0,0,0,12.47,4.85,
2,174523,8/28/2021,19:07:59,42.240036,-83.510498,0,0,7.3,744,47.3,0,-0.5,10.1,177.9,177.2,533,705,0,-7594,,,0.979,-50,,,1250,0,202,200,215,200,221,203,973,980,953,988,964,962,4,8.7,74,99,37,59,57.2,12.3,0.9,11.9,0,0,0,0,,,,0,0,0,0,0,0,0,0,12.47,4.83,
2,175522,8/28/2021,19:08:00,42.240036,-83.510506,0,0,7.3,744,47.3,0,-0.5,10.2,177.9,177.2,533,705,0,-7594,,,0.977,-50,,,1254,0,202,201,215,201,222,204,973,982,953,988,964,962,4.1,8.7,74,99,41,59,57.2,12.4,0.9,11.9,0,0,0,0,,,,0,0,0,0,0,0,0,0,12.49,4.85,
2,176523,8/28/2021,19:08:01,42.240036,-83.510506,0,360,7.3,745,47.3,0,-0.4,10.1,177.9,177.3,533,705,0,-7594,,,0.972,-50,,,1254,0,202,202,216,202,222,205,973,984,953,988,964,962,4.1,8.7,74,99,44,59,57.2,12.4,0.9,12,0,0,0,0,,,,0,0,0,0,0,0,0,0,12.45,4.89,
2,177522,8/28/2021,19:08:02,42.240036,-83.510506,0,360,7.3,745,47.3,0,-0.4,10.1,177.8,177.8,533,705,0,-7594,,,0.971,-50,,,1254,0,203,203,216,203,223,206,973,985,953,988,964,962,4,8.7,74,99,45,59,57.2,12.4,0.9,12,0,0,0,0,,,,0,0,0,0,0,0,0,0,12.43,4.85,
2,178523,8/28/2021,19:08:03,42.240036,-83.510506,0,0,7.3,745,47.3,0,-0.4,10.1,177.8,177.7,533,705,0,-7594,,,0.976,-50,,,1254,0,203,204,217,204,224,206,973,985,953,988,964,962,4,8.7,74,99,45,59,57.2,12.4,0.9,12,0,0,0,0,,,,0,0,0,0,0,0,0,0,12.45,4.87,
2,179522,8/28/2021,19:08:04,42.240036,-83.510506,0,0,7.3,745,47.3,0,-0.4,10.1,177.9,177.9,533,705,0,-7594,,,0.978,-50,,,1252,0,204,204,218,204,224,207,973,985,953,988,964,962,3.9,8.7,74,99,38,59,57.2,12.3,0.9,12,0,0,0,0,,,,0,0,0,0,0,0,0,0,12.49,4.87,
2,180522,8/28/2021,19:08:05,42.240036,-83.510506,0,360,7.3,745,47.3,0,-0.6,10.1,177.9,178.1,533,705,0,-7594,,,0.974,-50,,,1252,0,205,204,219,204,225,207,973,987,955,988,964,962,3.8,8.7,74,100,45,59,57.2,12.4,0.9,12,0,0,0,0,,,,0,0,0,0,0,0,0,0,12.45,4.89,
2,181522,8/28/2021,19:08:06,42.240036,-83.510506,0,0,7.3,745,47.3,0,-0.6,10.1,177.9,177.9,533,705,0,-7594,,,0.975,-50,,,1252,0,206,204,220,204,226,207,973,987,956,988,964,962,3.9,8.7,74,100,42,59,57.2,12.4,0.9,12,0,0,0,0,,,,0.02,0,0,0,0,0,0,0,12.47,4.91,
2,182522,8/28/2021,19:08:07,42.24004,-83.510506,0,0,7.3,745,47.3,0,-0.7,10.1,177.9,178.4,533,705,0,-7594,,,0.975,-50,,,1252,0,206,204,221,204,227,207,973,987,956,988,964,962,3.9,8.7,74,100,42,59,57.2,12.4,0.9,12,0,0,0,0,,,,0,0,0,0,0,0,0,0,12.43,4.89,
2,183522,8/28/2021,19:08:08,42.24004,-83.510506,0,0,7.3,745,47.3,0,-0.8,10.1,178,178.2,533,705,0,-7594,,,0.975,-50,,,1252,0,207,205,222,204,228,208,974,987,956,988,964,962,3.9,8.7,74,100,44,59,57.2,12.4,0.9,11.9,0,0,0,0,,,,0,0,0,0,0,0,0,0,12.47,4.87,
2,184522,8/28/2021,19:08:09,42.24004,-83.510506,0,0,7.3,745,47.3,0,-0.8,10.1,178.1,178.3,533,705,0,-7594,,,0.972,-50,,,1252,0,208,205,223,205,229,208,974,986,956,988,964,962,3.8,8.7,74,100,45,59,57.2,12.4,0.9,12,0,0,0,0,,,,0,0,0,0,0,0,0,0,12.41,4.87,
2,185522,8/28/2021,19:08:10,42.24004,-83.510506,0,0,7.3,745,47.3,0,-0.7,10.1,178.1,177.9,533,705,0,-7594,,,0.979,-50,,,1252,0,208,205,223,205,230,209,974,986,956,988,964,962,3.7,8.7,74,100,44,59,57.2,12.3,0.9,12,0,0,0,0,,,,0,0,0,0,0,0,0,0,12.47,4.87,
2,186522,8/28/2021,19:08:11,42.24004,-83.510506,0,0,7.3,745,47.3,0,-0.7,10.1,178.1,178.3,533,705,0,-7594,,,0.973,-50,,,1252,0,209,206,224,206,231,210,974,986,959,989,964,962,3.8,8.7,74,100,44,59,57.2,12.3,0.9,11.9,0,0,0,0,,,,0,0,0,0,0,0,0,0,12.45,4.91,
2,187522,8/28/2021,19:08:12,42.24004,-83.510506,0,0,7.3,745,47.3,0,-0.8,10.1,178.1,178,533,705,0,-7594,,,0.969,-50,,,1252,0,209,207,224,207,231,211,974,986,959,989,964,962,3.9,8.7,74,100,44,59,57.2,12.4,0.9,11.9,0,0,0,0,,,,0,0,0,0,0,0,0,0,12.43,4.91,
2,188522,8/28/2021,19:08:13,42.24004,-83.510506,0,0,7.3,745,47.3,0,-0.9,10.1,178.2,178.8,533,705,0,-7594,,,0.969,-50,,,1256,0,209,207,224,208,231,212,976,986,960,989,965,962,3.9,8.7,74,101,38,59,57.2,12.4,0.9,12,0,0,0,0,,,,0,0,0,0,0,0,0,0,12.43,4.89,
2,189523,8/28/2021,19:08:14,42.24004,-83.510506,0,0,7.3,745,47.3,0,-1.1,10.1,178.3,178.8,533,705,0,-7594,,,0.969,-50,,,1256,0,209,208,224,209,232,213,977,986,961,989,967,962,3.9,8.7,74,101,44,59,57.2,12.3,1,11.9,0,0,0,0,,,,0,0.01,0,0,0,0,0,0,12.43,4.89,
2,190522,8/28/2021,19:08:15,42.24004,-83.510506,0,0,7.3,745,47.3,0,-1.1,10.1,178.4,178.8,533,705,0,-7594,,,0.973,-50,,,1256,0,210,209,225,210,232,214,977,986,961,989,968,962,4,8.7,74,101,45,59,57.2,12.4,0.9,12,0,0,0,0,,,,0,0,0,0,0,0,0,0,12.43,4.91,
2,191523,8/28/2021,19:08:16,42.24004,-83.510506,0.7,349.2,7.3,745,47.3,0,-0.8,10.1,178.4,177.8,533,705,0,-7594,9.4,8.5,0.976,-50,9.1,171,1256,0,211,209,226,210,233,214,977,986,962,989,968,962,4,8.7,74,101,43,59,57.2,12.3,0.9,12,0,0,0,0,,,,0,0,0,0,0,0,0,0,12.45,4.91,
2,192522,8/28/2021,19:08:17,42.24004,-83.510506,0,360,7.3,745,47.3,0,-0.5,10.2,178.5,178,533,705,0,-7594,,,0.98,-50,,,1256,0,212,210,227,210,234,214,978,986,964,989,968,962,4.1,8.7,74,101,44,59,57.2,12.4,0.9,12,0,0,0,0,,,,0,0,0,0,0,0,0,0,12.39,4.91,
2,193523,8/28/2021,19:08:18,42.24004,-83.510506,0,360,7.3,745,47.3,0,-0.4,10.2,178.4,177.6,533,705,0,-7594,,,0.981,-50,,,1256,0,212,210,227,211,234,215,978,986,964,989,969,962,4,8.7,74,101,45,59,57.2,12.4,0.9,11.9,0,0,0,0,,,,0,0,0,0,0,0,0,0,12.36,4.96,
2,194522,8/28/2021,19:08:19,42.24004,-83.510506,0,360,7.3,745,47.3,0,-0.3,10.2,178.3,177.2,533,705,0,-7594,,,0.977,-50,,,1258,0,212,211,228,212,234,216,979,986,964,989,971,963,3.9,8.7,74,101,42,59,57.2,12.4,0.9,12,0,0,0,0,,,,0,0,0,0,0,0,0,0,12.45,4.93,
2,195522,8/28/2021,19:08:20,42.24004,-83.510506,0,360,7.3,745,47.3,0,-0.3,10.3,178.2,177.9,533,705,0,-7594,,,0.973,-50,,,1260,0,212,211,228,213,235,216,980,986,965,989,972,963,3.9,8.7,74,101,41,59,57.2,12.3,0.9,12,0,0,0,0,,,,0.01,0,0.01,0,0,0,0,0,12.43,4.93,
2,196522,8/28/2021,19:08:21,42.24004,-83.510506,0,0,7.3,745,47.3,0,-0.3,10.2,178.2,177.4,533,705,0,-7594,,,0.979,-50,,,1262,0,212,212,229,213,235,216,981,986,965,989,975,964,4,8.7,74,102,44,59,57.2,12.3,0.9,11.9,0,0,0,0,,,,0,0,0,0,0,0,0,0,12.45,4.96,
2,197522,8/28/2021,19:08:22,42.24004,-83.510513,0,0,7.3,745,47.3,0,-0.3,10.3,178.1,177.6,533,705,0,-7594,,,0.979,-50,,,1262,0,212,212,229,213,236,217,981,986,966,989,975,965,3.9,8.7,74,102,44,59,57.2,12.3,0.9,12,0,0,0,0,,,,0,0,0,0,0,0,0,0,12.45,4.93,
2,198522,8/28/2021,19:08:23,42.24004,-83.510513,0,0,7.3,745,47.3,0,-0.3,10.4,178,177.4,533,705,0,-7594,,,0.978,-50,,,1262,0,212,212,230,214,237,217,981,986,968,989,975,965,3.9,8.7,74,102,44,59,57.2,12.3,0.9,12,0,0,0,0,,,,0,0,0,0,0,0,0,0,12.45,4.96,
2,199522,8/28/2021,19:08:24,42.24004,-83.510513,0,0,7.3,745,47.3,0,-0.2,10.4,178,177.5,533,705,0,-7594,,,0.981,-50,,,1262,0,213,213,230,214,237,217,981,986,969,989,975,965,4,8.7,74,102,44,59,57.2,12.3,0.9,12,0,0,0,0,,,,0,0,0,0,0,0,0,0,12.45,5,
2,200522,8/28/2021,19:08:25,42.24004,-83.510513,0,0,7.3,745,47.3,0,-0.1,10.4,177.9,177.2,533,705,0,-7594,,,0.978,-50,,,1258,0,214,213,231,214,238,218,981,986,969,989,975,965,4,8.7,74,102,43,59,57.2,12.4,0.9,12,0,0,0,0,,,,0,0,0,0,0,0,0,0,12.32,4.96,
2,201522,8/28/2021,19:08:26,42.24004,-83.510513,0,360,7.3,745,47.3,0,-0.1,10.4,177.8,177.5,533,705,0,-7594,,,0.978,-50,,,1258,0,214,213,232,214,239,218,981,986,969,989,975,965,4,8.7,74,102,45,59,57.2,12.4,0.9,12,0,0,0,0,,,,0,0,0,0,0,0,0,0,12.45,4.96,
2,202522,8/28/2021,19:08:27,42.240044,-83.510513,0,360,7.3,744,47.3,0,-0.2,10.4,177.8,178,533,705,0,-7594,,,0.976,-50,,,1258,0,215,214,232,214,240,218,981,986,969,989,975,965,4.1,8.6,74,102,44,59,57.2,12.4,0.9,12,0,0,0,0,,,,0,0,0,0,0,0,0,0,12.45,4.98,
2,203522,8/28/2021,19:08:28,42.240044,-83.510513,0,0,7.3,744,47.3,0,-0.4,10.4,177.8,178,534,706,2,-7593,,,0.972,-50,,,1258,0,216,214,233,214,241,219,981,986,969,989,975,965,4.2,8.6,74,103,45,59,57.2,12.4,0.9,12,0,0,0,0,,,,0,0,0,0,0,0,0,0,12.49,4.98,
2,204523,8/28/2021,19:08:29,42.240044,-83.510513,0,0,7.3,744,47.3,0,-0.6,10.4,177.8,178.2,534,706,1,-7593,,,0.972,-50,,,1258,0,217,214,234,215,242,219,981,986,970,989,975,965,4.1,8.6,74,103,44,59,57.2,12.3,0.9,12,0,0,0,0,,,,0,0,0,0,0,0,0,0,12.45,5,
2,205522,8/28/2021,19:08:30,42.240044,-83.510513,0,0,7.3,744,47.3,0,-0.7,10.5,177.9,178.2,534,706,0,-7593,,,0.973,-50,,,1258,0,217,214,234,215,243,219,981,986,971,989,976,965,4,8.6,74,103,45,59,57.2,12.4,0.9,12,0,0,0,0,,,,0,0,0,0,0,0,0,0,12.47,4.98,
2,206523,8/28/2021,19:08:31,42.240044,-83.510513,0,0,7.3,744,47.3,0,-0.7,10.5,178,178.4,534,706,13,-7593,,,0.975,-50,,,1258,0,217,214,234,216,243,220,981,986,972,989,976,965,3.8,8.6,74,103,45,59,57.2,12.3,0.9,12,0,0,0,0,,,,0,0,0,0,0,0,0,0,12.45,4.98,
2,207522,8/28/2021,19:08:32,42.240044,-83.510513,0,360,7.3,744,47.3,0,-0.6,10.5,178,177.2,534,706,9,-7593,,,0.981,-50,,,1258,0,217,215,235,216,243,221,981,986,973,989,976,965,3.9,8.6,74,103,44,59,57.2,12.4,0.9,12,0,0,0,0,,,,0,0,0,0,0,0,0,0,12.45,4.98,
2,208523,8/28/2021,19:08:33,42.240044,-83.510513,0,360,7.3,744,47.3,0,-0.4,10.5,178.1,177.4,534,706,6,-7593,,,0.981,-50,,,1258,0,217,216,235,217,243,221,981,986,973,989,976,965,4,8.6,74,103,45,59,57.2,12.3,0.9,12,0,0,0,0,,,,0,0,0,0,0,0,0,0,12.41,5,
2,209522,8/28/2021,19:08:34,42.240044,-83.510513,0,360,7.3,744,47.3,0,-0.3,10.5,178,177.3,534,706,4,-7593,,,0.977,-50,,,1258,0,218,216,236,217,244,222,981,986,974,989,976,965,4.2,8.6,74,103,45,59,57.2,12.4,0.9,12,0,0,0,0,,,,0,0,0,0,0,0,0,0,12.45,5,
2,210523,8/28/2021,19:08:35,42.240047,-83.510513,0,360,7.3,743,47.3,0,-0.3,10.4,177.9,177.5,534,706,2,-7593,,,0.97,-50,,,1258,0,219,217,237,217,244,222,981,986,975,989,976,965,4,8.6,74,103,45,59,57.2,12.4,0.9,12,0,0,0,0,,,,0,0,0,0,0,0,0,0,12.49,5,
2,211522,8/28/2021,19:08:36,42.240047,-83.510513,0,360,7.3,743,47.3,0,-0.5,10.5,177.9,177.9,534,706,1,-7593,,,0.967,-50,,,1256,0,220,217,238,217,245,222,981,986,976,989,976,965,3.9,8.6,74,104,44,59,57.2,12.4,0.9,12.1,0,0,0,0,,,,0,0,0,0,0,0,0,0,12.43,5,
2,212522,8/28/2021,19:08:37,42.240047,-83.510513,0,0,7.3,744,47.3,0,-0.6,10.5,178,178.5,534,706,1,-7593,,,0.969,-50,,,1256,0,221,217,239,218,246,223,981,985,977,989,976,965,3.9,8.6,74,104,44,59,57.2,12.3,0.9,12.1,0,0,0,0,,,,0,0,0,0,0,0,0,0,12.47,5.02,
2,213522,8/28/2021,19:08:38,42.240047,-83.510513,0,0,7.3,744,47.3,0,-0.6,10.4,178,178.2,534,706,0,-7593,,,0.974,-50,,,1256,0,223,218,241,219,248,224,981,985,978,989,976,966,3.9,8.6,74,104,44,59,57.2,12.4,0.9,12.1,0,0,0,0,,,,0,0,0,0,0,0,0,0,12.49,5.02,
2,214522,8/28/2021,19:08:39,42.240047,-83.510513,0,0,7.3,744,47.3,0,-0.7,10.4,178.1,177.5,534,706,0,-7593,,,0.98,-50,,,1256,0,223,219,242,219,249,224,981,985,980,990,976,966,3.9,8.6,74,104,45,59,57.2,12.4,0.9,12.1,0,0,0,0,,,,0,0,0,0,0,0,0,0,12.45,5.02,
2,215522,8/28/2021,19:08:40,42.240047,-83.510513,0,0,7.3,744,47.3,0,-0.7,10.4,178.2,178,534,706,0,-7593,,,0.974,-50,,,1252,0,224,219,242,220,249,224,981,985,981,990,976,966,4.1,8.6,74,104,45,59,57.2,12.3,0.9,12.1,0,0,0,0,,,,0,0,0,0,0,0,0,0,12.41,5,
2,216522,8/28/2021,19:08:41,42.240047,-83.510513,0,360,7.3,744,47.3,0,-0.7,10.4,178.2,178.2,534,706,0,-7593,,,0.97,-50,,,1250,0,224,220,243,220,250,225,981,985,982,990,976,966,4.1,8.6,74,104,45,59,57.2,12.4,0.9,12,0,0,0,0,,,,0,0,0,0,0,0,0,0,12.47,5.02,
2,217522,8/28/2021,19:08:42,42.240047,-83.510513,0,360,7.3,744,47.3,0,-0.7,10.4,178.2,178.3,534,706,0,-7593,,,0.97,-50,,,1254,0,224,220,243,221,250,225,981,985,983,990,976,966,3.9,8.6,74,104,45,59,57.2,12.4,0.9,12,0,0,0,0,,,,0,0,0,0,0,0,0,0,12.39,5.02,
2,218522,8/28/2021,19:08:43,42.240047,-83.510513,0,0,7.3,744,47.3,0,-0.7,10.3,178.3,178.5,534,706,0,-7593,,,0.974,-50,,,1254,0,224,221,243,222,250,226,981,985,985,991,977,966,4,8.6,74,104,44,59,57.2,12.4,0.9,12,0,0,0,0,,,,0,0,0,0,0,0,0,0,12.41,5.02,
2,219522,8/28/2021,19:08:44,42.240047,-83.510513,0,0,7.3,744,47.3,0,-0.7,10.3,178.3,178.6,534,706,0,-7593,,,0.976,-50,,,1254,0,224,222,243,223,250,228,981,984,985,992,977,966,4,8.6,74,104,44,59,57.2,12.3,0.9,12,0,0,0,0,,,,0,0,0,0,0,0,0,0,12.41,5.02,
2,220522,8/28/2021,19:08:45,42.240047,-83.510506,0,0,7.3,744,47.3,0,-0.8,10.4,178.4,178.3,534,706,0,-7593,,,0.974,-50,,,1254,0,224,223,243,224,250,229,981,984,986,992,977,966,3.9,8.6,74,104,44,59,57.2,12.4,0.9,12.1,0,0,0,0,,,,0,0,0,0,0,0,0,0,12.47,5.04,
2,221523,8/28/2021,19:08:46,42.240047,-83.510506,0,360,7.3,744,47.3,0,-0.8,10.3,178.4,177.9,534,706,0,-7593,,,0.978,-50,,,1254,0,224,224,243,225,250,230,981,984,986,992,977,966,3.9,8.6,74,104,45,59,57.2,12.4,0.9,12.1,0,0,0,0,,,,0,0,0,0,0,0,0,0,12.45,5.02,
2,222522,8/28/2021,19:08:47,42.240047,-83.510506,0,360,7.3,744,47.3,0,-0.8,10.3,178.3,177.7,534,706,0,-7593,,,0.973,-50,,,1254,0,224,224,244,226,251,230,981,984,988,993,977,966,3.8,8.6,74,104,44,59,57.2,12.4,0.9,12,0,0,0,0,,,,0,0,0,0,0,0,0,0,12.45,5.04,
2,223522,8/28/2021,19:08:48,42.240047,-83.510506,0,360,7.3,744,47.3,0,-0.7,10.3,178.4,178.3,534,706,0,-7593,,,0.975,-50,,,1254,0,224,224,244,226,252,231,981,984,989,993,977,966,3.8,8.6,74,104,44,59,57.2,12.4,0.9,12.1,0,0,0,0,,,,0,0,0,0,0,0,0,0,12.41,5.02,
2,224522,8/28/2021,19:08:49,42.240047,-83.510506,0,360,7.3,744,47.3,0,-0.6,10.4,178.4,177.9,534,706,0,-7593,,,0.975,-50,,,1254,0,225,225,245,226,253,231,981,984,990,993,977,966,4,8.6,74,104,44,59,57.2,12.4,0.9,12.1,0,0,0,0,,,,0,0,0,0,0,0,0,0,12.45,5.09,
2,225522,8/28/2021,19:08:50,42.240047,-83.510506,0,360,7.3,744,47.3,0,-0.6,10.4,178.4,178.2,534,706,0,-7593,,,0.971,-50,,,1254,0,226,225,246,226,254,231,981,984,990,993,977,966,4.1,8.6,74,104,44,59,57.2,12.3,0.9,12.1,0,0,0,0,,,,0.01,0,0,0,0,0,0,0,12.36,5.06,
2,226522,8/28/2021,19:08:51,42.240047,-83.510506,0,0,7.3,743,47.3,0,-0.5,10.4,178.4,178.1,534,706,0,-7593,,,0.974,-50,,,1254,0,227,225,246,226,254,231,981,984,992,993,977,966,4.1,8.6,74,104,44,59,57.2,12.4,1,12.1,0,0,0,0,,,,0,0,0,0,0,0,0,0,12.47,5.09,
2,227523,8/28/2021,19:08:52,42.240047,-83.510506,0,0,7.3,743,47.3,0,-0.5,10.3,178.4,178.3,534,706,0,-7593,,,0.977,-50,,,1252,0,228,225,248,226,255,231,981,983,992,994,977,967,4.1,8.6,74,104,45,59,57.2,12.3,0.9,12.1,0,0,0,0,,,,0,0,0,0,0,0,0,0,12.47,5.06,
2,228522,8/28/2021,19:08:53,42.240047,-83.510506,0,0,7.3,743,47.3,0,-0.5,10.3,178.3,177.5,534,706,0,-7593,,,0.973,-50,,,1252,0,228,225,248,227,256,231,981,983,992,994,977,967,4,8.6,74,104,41,59,57.2,12.3,0.9,12,0,0,0,0,,,,0,0,0,0,0,0,0,0,12.45,5.09,
2,229523,8/28/2021,19:08:54,42.240047,-83.510506,0,0,7.3,743,47.3,0,-0.5,10.3,178.3,177.4,534,706,0,-7593,,,0.972,-50,,,1252,0,228,226,248,227,256,232,981,983,992,994,978,967,4,8.6,74,105,44,59,57.2,12.4,0.9,12,0,0,0,0,,,,0,0,0,0,0,0,0,0,12.41,5.06,
2,230522,8/28/2021,19:08:55,42.240047,-83.510506,0,0,7.3,742,47.3,0,-0.7,10.3,178.3,178.2,534,706,0,-7593,,,0.968,-50,,,1252,0,228,226,249,228,256,233,981,983,992,994,979,967,4,8.6,74,105,40,59,57.2,12.3,1,12.1,0,0,0,0,,,,0,0,0,0,0,0,0,0,12.39,5.06,
2,231523,8/28/2021,19:08:56,42.240047,-83.510506,0,0,7.3,742,47.3,0,-0.8,10.2,178.4,178.4,534,706,0,-7593,,,0.967,-50,,,1254,0,228,227,249,229,256,234,981,983,992,995,980,967,4,8.6,74,105,44,59,57.2,12.3,0.9,12.1,0,0,0,0,,,,0.02,0,0,0,0,0,0,0,12.41,5.09,
2,232522,8/28/2021,19:08:57,42.240051,-83.510506,0,0,7.3,742,47.3,0,-1,10.2,178.4,179,534,706,0,-7593,,,0.969,-50,,,1254,0,228,228,249,230,256,235,981,983,992,995,981,967,4.1,8.6,74,105,45,59,57.2,12.4,0.9,12.1,0,0,0,0,,,,0,0,0,0,0,0,0,0,12.45,5.11,
2,233523,8/28/2021,19:08:58,42.240051,-83.510506,0,0,7.3,741,47.3,0,-1,10.2,178.4,178.7,534,706,0,-7593,,,0.975,-50,,,1254,0,228,228,249,230,256,236,981,982,992,997,981,967,4.1,8.6,74,105,40,59,57.2,12.3,0.9,12.1,0,0,0,0,,,,0,0,0,0,0,0,0,0,12.45,5.11,
2,234522,8/28/2021,19:08:59,42.240051,-83.510506,0,360,7.3,741,47.3,0,-0.7,10.2,178.4,178.4,534,706,0,-7593,,,0.973,-50,,,1254,0,228,229,249,231,257,237,982,981,992,997,982,968,4,8.6,74,105,40,59,57.2,12.3,0.9,12.1,0,0,0,0,,,,0,0.01,0,0,0,0,0,0,12.47,5.11,
2,235523,8/28/2021,19:09:00,42.240051,-83.510506,0,360,7.3,740,47.3,0,-0.7,10.1,178.4,178.4,534,706,0,-7593,,,0.969,-50,,,1254,0,228,229,250,232,258,237,982,981,991,997,983,968,4,8.6,74,105,45,59,57.2,12.4,0.9,12.1,0,0,0,0,,,,0,0,0,0,0,0,0,0,12.47,5.11,
2,236522,8/28/2021,19:09:01,42.240051,-83.510506,0,360,7.3,740,47.3,0,-0.7,10.1,178.4,178.6,534,706,-14,-7593,,,0.972,-50,,,1254,0,228,230,251,233,258,238,982,981,990,997,983,968,3.9,8.6,74,105,43,59,57.2,12.4,0.9,12.1,0,0,0,0,,,,0,0,0,0,0,0,0,0,12.47,5.11,
2,237522,8/28/2021,19:09:02,42.240051,-83.510506,0,0,7.3,739,47.3,0,-0.7,10.2,178.5,178.6,534,706,-9,-7593,,,0.972,-50,,,1254,0,228,230,251,233,259,239,982,981,990,998,983,968,4,8.6,74,106,44,59,57.2,12.3,0.9,12.1,0,0,0,0,,,,0.03,0,0,0,0,0,0,0,12.41,5.11,
2,238522,8/28/2021,19:09:03,42.240051,-83.510506,0,0,7.3,739,47.3,0,-0.6,10.2,178.5,177.5,534,706,-6,-7593,,,0.977,-50,,,1254,0,228,231,252,234,259,239,982,981,990,998,983,968,3.9,8.6,74,106,42,59,57.2,12.3,0.9,12.1,0,0,0,0,,,,0,0,0,0,0,0,0,0,12.41,5.15,
2,239522,8/28/2021,19:09:04,42.240051,-83.510506,0,360,7.3,739,47.3,0,-0.5,10.3,178.4,177.7,534,706,-4,-7593,,,0.972,-50,,,1260,0,229,231,252,234,260,239,982,981,990,999,983,968,3.9,8.6,74,106,43,59,57.2,12.3,0.9,12,0,0,0,0,,,,0.02,0,0,0,0,0,0,0,12.47,5.11,
2,240522,8/28/2021,19:09:05,42.240051,-83.510506,0,360,7.3,739,47.3,0,-0.6,10.3,178.3,177.8,534,706,-3,-7593,,,0.965,-50,,,1260,0,229,231,252,234,260,239,982,981,990,999,983,968,3.9,8.6,74,106,41,59,57.2,12.4,0.9,12,0,0,0,0,,,,0,0,0,0,0,0,0,0,12.45,5.13,
2,241522,8/28/2021,19:09:06,42.240051,-83.510506,0,0,7.3,739,47.3,0,-0.8,10.3,178.4,178.9,534,706,-12,-7593,,,0.973,-50,,,1260,0,229,231,252,234,260,239,982,981,990,1001,984,969,3.9,8.6,74,106,44,59,57.3,12.4,0.9,12.1,0,0,0,0,,,,0,0,0,0,0,0,0,0,12.39,5.11,
2,242522,8/28/2021,19:09:07,42.240051,-83.510506,0,0,7.3,738,47.3,0,-0.8,10.2,178.4,178.1,534,706,-8,-7593,,,0.973,-50,,,1260,0,229,233,252,234,260,240,982,981,990,1003,984,969,3.9,8.6,74,106,41,59,57.3,12.4,0.9,12,0,0,0,0,,,,0,0,0,0,0,0,0,0,12.47,5.15,
2,243522,8/28/2021,19:09:08,42.240051,-83.510506,0,0,7.3,738,47.3,0,-0.8,10.2,178.4,178.5,534,706,-5,-7593,,,0.978,-50,,,1264,0,229,233,252,235,260,241,982,981,990,1005,984,969,3.9,8.6,75,106,46,59,57.3,12.3,0.9,12,0,0,0,0,,,,0,0,0,0,0,0,0,0,12.43,5.11,
2,244523,8/28/2021,19:09:09,42.240051,-83.510506,0,0,7.3,738,47.3,0,-0.5,10.2,178.4,177.9,534,706,-3,-7593,,,0.977,-50,,,1264,0,230,234,252,235,260,241,982,981,990,1006,984,971,3.9,8.6,74,106,45,59,57.3,12.4,0.9,12,0,0,0,0,,,,0,0,0,0,0,0,0,0,12.43,5.15,
2,245522,8/28/2021,19:09:10,42.240051,-83.510506,0,0,7.3,738,47.3,0,-0.4,10.2,178.4,178.2,534,706,-2,-7593,,,0.98,-50,,,1264,0,231,234,253,235,261,241,982,980,989,1007,984,972,3.9,8.6,74,106,45,59,57.3,12.3,1,12,0,0,0,0,,,,0,0,0,0,0,0,0,0,12.47,5.15,
2,246523,8/28/2021,19:09:11,42.240051,-83.510506,0,0,7.3,738,47.3,0,-0.4,10.2,178.4,177.4,534,706,-4,-7593,,,0.972,-50,,,1266,0,231,234,253,235,262,241,982,980,989,1008,985,973,4,8.6,74,106,44,59,57.3,12.3,0.9,12,0,0,0,0,,,,0,0.01,0,0,0,0,0,0,12.47,5.17,
2,247522,8/28/2021,19:09:12,42.240051,-83.510506,0,360,7.3,737,47.3,0,-0.4,10.2,178.3,177.8,534,706,-10,-7593,,,0.972,-50,,,1266,0,231,234,254,235,262,241,982,980,989,1008,985,974,4,8.6,75,106,46,59,57.3,12.4,0.9,12,0,0,0,0,,,,0,0,0,0,0,0,0,0,12.45,5.15,
2,248522,8/28/2021,19:09:13,42.240051,-83.510506,0,360,7.3,737,47.3,0,-0.4,10.2,178.2,177.4,534,706,-7,-7593,,,0.972,-50,,,1266,0,232,234,255,235,263,241,982,980,989,1010,985,975,4,8.6,75,106,44,59,57.3,12.4,0.9,12,0,0,0,0,,,,0,0,0,0,0,0,0,0,12.47,5.19,
2,249522,8/28/2021,19:09:14,42.240051,-83.510506,0,0,7.3,737,47.3,0,-0.5,10.3,178.1,177.3,534,706,-4,-7593,,,0.969,-50,,,1266,0,233,234,256,235,264,241,982,980,989,1010,985,975,3.9,8.6,74,106,41,59,57.3,12.3,0.9,12,0,0,0,0,,,,0,0,0,0,0,0,0,0,12.41,5.15,
2,250522,8/28/2021,19:09:15,42.240051,-83.510506,0,360,7.3,737,47.3,0,-0.7,10.3,178.1,178.5,534,706,-3,-7593,,,0.97,-50,,,1266,0,233,235,256,236,265,242,983,980,988,1010,986,975,3.9,8.6,75,106,41,59,57.3,12.4,0.9,12.1,0,0,0,0,,,,0,0,0,0,0,0,0,0,12.45,5.19,
2,251522,8/28/2021,19:09:16,42.240051,-83.510506,0,360,7.3,737,47.3,0,-0.8,10.3,178.2,178.4,534,706,-2,-7593,,,0.97,-50,,,1266,0,233,235,257,236,266,243,983,980,987,1011,987,975,4,8.6,75,106,45,59,57.3,12.3,0.9,12.1,0,0,0,0,,,,0,0,0,0,0,0,0,0,12.47,5.24,
2,252522,8/28/2021,19:09:17,42.240047,-83.510506,0,0,7.3,736,47.3,0,-0.8,10.3,178.3,178.7,534,706,-1,-7593,,,0.971,-50,,,1266,0,234,235,257,237,267,243,983,979,987,1011,987,975,4,8.6,75,106,41,59,57.3,12.3,0.9,12.1,0,0,0,0,,,,0,0,0,0,0,0,0,0,12.47,5.15,
2,253522,8/28/2021,19:09:18,42.240051,-83.510506,0,0,7.3,736,47.3,0,-0.8,10.3,178.3,178.2,534,706,-1,-7593,,,0.975,-50,,,1266,0,234,235,257,238,267,244,983,979,986,1011,987,975,4.1,8.6,75,106,45,59,57.3,12.4,1,12.1,0,0,0,0,,,,0,0,0,0,0,0,0,0,12.41,5.17,
2,254522,8/28/2021,19:09:19,42.240051,-83.510506,0,360,7.3,736,47.3,0,-0.8,10.4,178.3,177.9,534,706,0,-7593,,,0.971,-50,,,1266,0,234,236,258,239,267,245,983,979,986,1011,987,975,4.2,8.6,75,106,45,59,57.3,12.3,1,12.1,0,0,0,0,,,,0,0,0,0,0,0,0,0,12.43,5.15,
2,255522,8/28/2021,19:09:20,42.240051,-83.510506,0,0,7.3,736,47.3,0,-0.8,10.3,178.4,178.8,534,706,0,-7593,,,0.969,-50,,,1266,0,235,237,259,240,268,246,983,979,986,1011,988,975,4,8.6,75,106,45,59,57.3,12.3,0.9,12.1,0,0,0,0,,,,0,0,0,0,0,0,0,0,12.45,5.19,
2,256523,8/28/2021,19:09:21,42.240051,-83.510506,0,0,7.3,736,47.3,0,-0.8,10.3,178.4,179,534,706,0,-7593,,,0.977,-50,,,1266,0,236,238,260,240,269,247,983,979,986,1011,988,975,4,8.6,75,106,46,59,57.3,12.4,0.9,12.1,0,0,0,0,,,,0,0,0,0,0,0,0,0,12.39,5.19,
2,257522,8/28/2021,19:09:22,42.240051,-83.510506,0,0,7.3,735,47.3,0,-0.8,10.3,178.4,178.3,534,706,0,-7593,,,0.975,-50,,,1266,0,236,238,260,240,270,247,983,979,986,1011,988,975,4.1,8.6,75,106,46,59,57.3,12.4,1,12,0,0,0,0,,,,0,0,0,0,0,0,0,0,12.45,5.19,
